Iata,Icao,Region,Municipality,Name,IsHub,Latitude,Longitude,Elevation,Type,RunwayLength,RunwayCount,Slots,Passengers,WikiURL,Spalte1,Spalte2,Spalte3,Spalte4
AAL,EKYT,DK-81,Aalborg,Aalborg Airport,1,57.09275891,9.849243164,10,L,8707,2,13,3708,http://en.wikipedia.org/wiki/Aalborg_Airport,,,,
ABQ,KABQ,US-NM,Albuquerque,Albuquerque International Sunport Airport,1,35.040199,-106.609001,5355,L,13793,4,21,4450,http://en.wikipedia.org/wiki/Albuquerque_International_Sunport,,,,
ABZ,EGPD,GB-SCT,Aberdeen,Aberdeen Dyce Airport,1,57.20190048,-2.197779894,215,L,6001,4,16,5320,http://en.wikipedia.org/wiki/Aberdeen_Airport,,,,
ACA,MMAA,MX-GRO,Acapulco,General Juan N Alvarez International Airport,1,16.75709915,-99.7539978,16,L,10832,2,14,3708,http://en.wikipedia.org/wiki/General_Juan_N._%C3%81lvarez_International_Airport,,,,
ADB,LTBJ,TR-35,??zmir,Adnan Menderes International Airport,1,38.29240036,27.15699959,412,L,10630,2,15,8328,http://en.wikipedia.org/wiki/Adnan_Menderes_Airport,,,,
ADD,HAAB,ET-AA,Addis Ababa,Addis Ababa Bole International Airport,1,8.977890015,38.79930115,7630,L,12467,2,16,12000,http://en.wikipedia.org/wiki/Bole_International_Airport,,,,
ADL,YPAD,AU-SA,Adelaide,Adelaide International Airport,1,-34.945,138.531006,20,L,3100,2,12,41330,http://en.wikipedia.org/wiki/Adelaide_International_Airport,,,,
AGP,LEMG,ES-AN,M?ílaga,M?ílaga Airport,1,36.67490005,-4.499110222,53,L,10500,2,15,27466,http://en.wikipedia.org/wiki/M%C3%A1laga_Airport,,,,
AGS,KAGS,US-GA,Augusta,Augusta Regional At Bush Field,1,33.36989975,-81.96450043,144,L,8001,2,13,4291,http://en.wikipedia.org/wiki/Augusta_Regional_Airport,,,,
AKL,NZAA,NZ-AUK,Auckland,Auckland International Airport,1,-37.0080986,174.7920074,23,L,11926,2,16,12685,http://en.wikipedia.org/wiki/Auckland_International_Airport,,,,
ALG,DAAG,DZ-35,Algiers,Houari Boumediene Airport,1,36.69100189,3.215409994,82,L,11483,2,15,11104,http://en.wikipedia.org/wiki/Houari_Boumedienne_Airport,,,,
AMA,KAMA,US-TX,Amarillo,Rick Husband Amarillo International Airport,1,35.219398,-101.706001,3607,L,13502,2,18,3750,http://en.wikipedia.org/wiki/Rick_Husband_Amarillo_International_Airport,,,,
AMM,OJAI,JO-AM,Amman,Queen Alia International Airport,1,31.72260094,35.99319839,2395,L,12008,2,16,12817,http://en.wikipedia.org/wiki/Queen_Alia_International_Airport,,,,
AMS,EHAM,NL-NH,Amsterdam,Amsterdam Airport Schiphol,1,52.30860138,4.76388979,-11,L,12467,6,26,57164,http://en.wikipedia.org/wiki/Amsterdam_Schiphol_Airport,,,,
ANC,PANC,US-AK,Anchorage,Ted Stevens Anchorage International Airport,1,61.17440033,-149.9960022,152,L,11584,3,20,6214,http://en.wikipedia.org/wiki/Ted_Stevens_Anchorage_International_Airport,,,,
ARN,ESSA,SE-AB,Stockholm,Stockholm-Arlanda Airport,1,59.65190125,17.91860008,137,L,10830,3,18,26592,http://en.wikipedia.org/wiki/Stockholm-Arlanda_Airport,,,,
ATH,LGAV,GR-A1,Athens,Eleftherios Venizelos International Airport,1,37.93640137,23.94449997,308,L,13123,2,18,26735,http://en.wikipedia.org/wiki/Athens_International_Airport,,,,
ATL,KATL,US-GA,Atlanta,Hartsfield Jackson Atlanta International Airport,1,33.63669968,-84.42810059,1026,L,11890,5,24,106166,http://en.wikipedia.org/wiki/Hartsfield-Jackson_Atlanta_International_Airport,,,,
AUH,OMAA,AE-AZ,Abu Dhabi,Abu Dhabi International Airport,1,24.43300056,54.65110016,88,L,13452,2,16,24100,http://en.wikipedia.org/wiki/Abu_Dhabi_International_Airport,,,,
AUS,KAUS,US-TX,Austin,Austin Bergstrom International Airport,1,30.19449997,-97.66989899,542,L,12248,2,17,10933,0,,,,
AYT,LTAI,TR-07,Antalya,Antalya International Airport,1,36.898701,30.800501,177,L,11155,3,18,15572,http://en.wikipedia.org/wiki/Antalya_Airport,,,,
BAH,OBBI,BH-15,Manama,Bahrain International Airport,1,26.27079964,50.63359833,6,L,12979,2,17,8700,http://en.wikipedia.org/wiki/Bahrain_International_Airport,,,,
BCN,LEBL,ES-CT,Barcelona,Barcelona International Airport,1,41.29710007,2.078459978,12,L,11654,3,18,40030,http://en.wikipedia.org/wiki/Barcelona_International_Airport,,,,
BDL,KBDL,US-CT,Hartford,Bradley International Airport,1,41.93889999,-72.68319702,173,L,9510,3,18,5039,http://en.wikipedia.org/wiki/Bradley_International_Airport,,,,
BEL,SBBE,BR-PA,Bel??m,Val de Cans/J??lio Cezar Ribeiro International Airport,1,-1.37925005,-48.47629929,54,L,9186,3,16,4157,http://en.wikipedia.org/wiki/Val_de_Cans_International_Airport,,,,
BEY,OLBA,LB-JL,Beirut,Beirut Rafic Hariri International Airport,1,33.82089996,35.48839951,87,L,12467,3,18,7577,http://en.wikipedia.org/wiki/Beirut_Rafic_Hariri_International_Airport,,,,
BFI,KBFI,US-WA,Seattle,Boeing Field King County International Airport,1,47.52999878,-122.302002,21,L,10000,2,15,4583,http://en.wikipedia.org/wiki/Boeing_Field,,,,
BFS,EGAA,GB-NIR,Belfast,Belfast International Airport,1,54.65750122,-6.215829849,268,L,9121,2,14,4542,http://en.wikipedia.org/wiki/Belfast_International_Airport,,,,
BGW,ORBI,IQ-BG,Baghdad,Baghdad International Airport,1,33.26250076,44.23460007,114,L,13124,2,18,3958,http://en.wikipedia.org/wiki/Baghdad_International_Airport,,,,
BGY,LIME,IT-25,Bergamo,Il Caravaggio International Airport,1,45.673901,9.70417,782,L,9636,2,14,9642,http://en.wikipedia.org/wiki/Il_Caravaggio_International_Airport,,,,
BHM,KBHM,US-AL,Birmingham,Birmingham-Shuttlesworth International Airport,1,33.56290054,-86.75350189,650,L,10000,2,15,3642,http://en.wikipedia.org/wiki/Birmingham_International_Airport_(US),,,,
BIL,KBIL,US-MT,Billings,Billings Logan International Airport,1,45.80770111,-108.5429993,3652,L,10518,3,18,3416,http://en.wikipedia.org/wiki/Billings_Logan_International_Airport,,,,
BLV,KBLV,US-IL,Belleville,Scott AFB/Midamerica Airport,1,38.5452,-89.835197,459,L,10000,2,15,4625,http://en.wikipedia.org/wiki/Scott_Air_Force_Base,,,,
BMI,KBMI,US-IL,Bloomington/Normal,Central Illinois Regional Airport at Bloomington-Normal,1,40.47710037,-88.91590118,871,L,8000,3,16,3541,http://en.wikipedia.org/wiki/Central_Illinois_Regional_Airport,,,,
BNA,KBNA,US-TN,Nashville,Nashville International Airport,1,36.12450027,-86.67819977,599,L,11030,4,21,8297,http://en.wikipedia.org/wiki/Nashville_International_Airport,,,,
BNE,YBBN,AU-QLD,Brisbane,Brisbane International Airport,1,-27.38419914,153.1170044,13,L,3560,2,12,31879,http://en.wikipedia.org/wiki/Brisbane_Airport,,,,
BOD,LFBD,FR-B,Bordeaux/M??rignac,Bordeaux-M??rignac Airport,1,44.82830048,-0.715556026,162,L,10171,2,15,9092,http://en.wikipedia.org/wiki/Bordeaux%E2%80%93M%C3%A9rignac_Airport,,,,
BOG,SKBO,CO-CUN,Bogota,El Dorado International Airport,1,4.70159,-74.1469,8361,L,12467,2,16,19723,http://en.wikipedia.org/wiki/El_Dorado_International_Airport,,,,
BOI,KBOI,US-ID,Boise,Boise Air Terminal/Gowen field,1,43.56439972,-116.2229996,2871,L,10000,3,18,4500,http://en.wikipedia.org/wiki/Boise_Airport,,,,
BOS,KBOS,US-MA,Boston,General Edward Lawrence Logan International Airport,1,42.36429977,-71.00520325,20,L,10083,6,25,26247,http://en.wikipedia.org/wiki/Logan_International_Airport,,,,
BRE,EDDW,DE-HB,Bremen,Bremen Airport,1,53.04750061,8.786669731,14,L,6693,2,11,5000,http://en.wikipedia.org/wiki/Bremen_Airport,,,,
BRI,LIBD,IT-75,Bari,Bari Karol Wojty?éa Airport,1,41.138901,16.760599,177,L,9252,2,13,6428,http://en.wikipedia.org/wiki/Bari_Karol_Wojty%C5%82a_Airport,,,,
BRU,EBBR,BE-BRU,Brussels,Brussels Airport,1,50.90140152,4.48443985,184,L,11936,3,20,36490,http://en.wikipedia.org/wiki/Brussels_Airport,,,,
BSB,SBBR,BR-DF,Bras?¡lia,Presidente Juscelino Kubistschek International Airport,1,-15.86916733,-47.92083359,3497,L,10827,2,15,11550,http://en.wikipedia.org/wiki/Bras%C3%ADlia_International_Airport,,,,
BSL,LFSB,FR-A,B?óle/Mulhouse,EuroAirport Basel-Mulhouse-Freiburg Airport,1,47.59,7.5291667,885,L,12795,2,17,10857,http://en.wikipedia.org/wiki/EuroAirport_Basel-Mulhouse-Freiburg,,,,
BTR,KBTR,US-LA,Baton Rouge,Baton Rouge Metropolitan,1,30.53319931,-91.14959717,70,L,7004,3,15,3791,http://en.wikipedia.org/wiki/Baton_Rouge_Metropolitan_Airport,,,,
BTS,LZIB,SK-BL,Bratislava,M. R. ?átef?ínik Airport,1,48.17020035,17.21269989,436,L,10466,2,14,4375,http://en.wikipedia.org/wiki/M._R._%C5%A0tef%C3%A1nik_Airport,,,,
BUD,LHBP,HU-PE,Budapest,Budapest Ferenc Liszt International Airport,1,47.43690109,19.25559998,495,L,12162,2,17,13066,http://en.wikipedia.org/wiki/Budapest_Ferenc_Liszt_International_Airport,,,,
BUF,KBUF,US-NY,Buffalo,Buffalo Niagara International Airport,1,42.94049835,-78.73220062,728,L,8102,2,13,3557,http://en.wikipedia.org/wiki/Buffalo_Niagara_International_Airport,,,,
BWI,KBWI,US-MD,Baltimore,Baltimore/Washington International Thurgood Marshall Airport,1,39.17539978,-76.66829681,146,L,10502,4,20,16904,http://en.wikipedia.org/wiki/Baltimore-Washington_International_Thurgood_Marshall_Airport,,,,
CAE,KCAE,US-SC,Columbia,Columbia Metropolitan Airport,1,33.93880081,-81.11949921,236,L,8601,2,13,3708,http://en.wikipedia.org/wiki/Columbia_Metropolitan_Airport,,,,
CAI,HECA,EG-C,Cairo,Cairo International Airport,1,30.12190056,31.40559959,382,L,13124,3,20,20133,http://en.wikipedia.org/wiki/Cairo_International_Airport,,,,
CAN,ZGGG,CN-44,Guangzhou,Guangzhou Baiyun International Airport,1,23.39240074,113.2990036,50,L,3800,3,18,18795,http://en.wikipedia.org/wiki/Guangzhou_Baiyun_International_Airport,,,,
CBR,YSCB,AU-ACT,Canberra,Canberra International Airport,1,-35.30690002,149.1950073,1886,L,3283,2,12,27500,http://en.wikipedia.org/wiki/Canberra_International_Airport,,,,
CDG,LFPG,FR-J,Paris,Charles de Gaulle International Airport,1,49.01279831,2.549999952,392,L,13829,4,23,56142,http://www.vashikaranspecialistastrologer.com/,,,,
CGH,SBSP,BR-SP,S?úo Paulo,Congonhas Airport,1,-23.62611008,-46.65638733,2631,L,6365,2,11,6378,http://en.wikipedia.org/wiki/Congonhas-S%C3%A3o_Paulo_International_Airport,,,,
CGN,EDDK,DE-NW,Cologne,Cologne Bonn Airport,1,50.86589813,7.142739773,302,L,12516,3,20,14516,http://en.wikipedia.org/wiki/Cologne_Bonn_Airport,,,,
CHA,KCHA,US-TN,Chattanooga,Lovell Field,1,35.03530121,-85.20379639,683,L,7400,2,13,3333,http://en.wikipedia.org/wiki/Chattanooga_Metropolitan_Airport,,,,
CHC,NZCH,NZ-CAN,Christchurch,Christchurch International Airport,1,-43.48939896,172.5319977,123,L,10787,3,18,4166,http://en.wikipedia.org/wiki/Christchurch_International_Airport,,,,
CHS,KCHS,US-SC,Charleston,Charleston Air Force Base-International Airport,1,32.89860153,-80.04049683,46,L,9001,2,15,4791,http://en.wikipedia.org/wiki/Charleston_International_Airport,,,,
CID,KCID,US-IA,Cedar Rapids,The Eastern Iowa Airport,1,41.88470078,-91.71080017,869,L,8601,2,14,3500,http://en.wikipedia.org/wiki/The_Eastern_Iowa_Airport,,,,
CJJ,RKTU,KR-43,Cheongju,Cheongju International Airport/Cheongju Air Base (K-59/G-513),1,36.717008,127.498741,191,L,9000,2,14,3875,http://en.wikipedia.org/wiki/Cheongju_Airport,,,,
CJU,RKPC,KR-49,Jeju City,Jeju International Airport,1,33.51129913,126.4929962,118,L,9843,2,14,7515,http://en.wikipedia.org/wiki/Jeju_International_Airport,,,,
CLE,KCLE,US-OH,Cleveland,Cleveland Hopkins International Airport,1,41.4117012,-81.84980011,791,L,9000,4,19,10607,http://en.wikipedia.org/wiki/Cleveland_Hopkins_International_Airport,,,,
CLT,KCLT,US-NC,Charlotte,Charlotte Douglas International Airport,1,35.2140007,-80.94309998,748,L,10000,4,20,33683,http://en.wikipedia.org/wiki/Charlotte/Douglas_International_Airport,,,,
CMH,KCMH,US-OH,Columbus,John Glenn Columbus International Airport,1,39.998001,-82.891899,815,L,10125,2,15,8025,http://en.wikipedia.org/wiki/Port_Columbus_International_Airport,,,,
CMN,GMMN,MA-CAS,Casablanca,Mohammed V International Airport,1,33.36750031,-7.589970112,656,L,12205,2,15,14732,0,,,,
COS,KCOS,US-CO,Colorado Springs,City of Colorado Springs Municipal Airport,1,38.80580139,-104.7009964,6187,L,13501,3,21,4708,http://en.wikipedia.org/wiki/Colorado_Springs_Airport,,,,
CPH,EKCH,DK-84,Copenhagen,Copenhagen Kastrup Airport,1,55.61790085,12.65600014,17,L,11811,3,21,27261,http://en.wikipedia.org/wiki/Copenhagen_Airport,,,,
CPR,KCPR,US-WY,Casper,Casper-Natrona County International Airport,1,42.90800095,-106.4639969,5350,L,10164,4,20,3416,http://en.wikipedia.org/wiki/Natrona_County_International_Airport,,,,
CPT,FACT,ZA-WC,Cape Town,Cape Town International Airport,1,-33.96480179,18.60169983,151,L,10502,2,15,5814,http://en.wikipedia.org/wiki/Cape_Town_International_Airport,,,,
CRK,RPLC,PH-PAM,Angeles/Mabalacat,Diosdado Macapagal International Airport,1,15.186,120.559998,484,L,10499,2,14,4500,http://en.wikipedia.org/wiki/Diosdado_Macapagal_International_Airport,,,,
CRP,KCRP,US-TX,Corpus Christi,Corpus Christi International Airport,1,27.77039909,-97.50119781,44,L,7508,2,13,3625,http://en.wikipedia.org/wiki/Corpus_Christi_International_Airport,,,,
CRW,KCRW,US-WV,Charleston,Yeager Airport,1,38.37310028,-81.59320068,981,L,6302,2,12,3875,http://en.wikipedia.org/wiki/Yeager_Airport,,,,
CTS,RJCC,JP-01,Chitose / Tomakomai,New Chitose Airport,1,42.77519989,141.6920013,82,L,9840,2,14,10703,http://en.wikipedia.org/wiki/New_Chitose_Airport,,,,
CUN,MMUN,MX-ROO,Canc??n,Canc??n International Airport,1,21.03650093,-86.87709808,22,L,11483,2,16,16447,http://en.wikipedia.org/wiki/Canc%C3%BAn_International_Airport,,,,
CVG,KCVG,US-KY,Cincinnati,Cincinnati Northern Kentucky International Airport,1,39.04880142,-84.6678009,896,L,12000,4,22,8928,http://en.wikipedia.org/wiki/Cincinnati/Northern_Kentucky_International_Airport,,,,
CWB,SBCT,BR-PR,Curitiba,Afonso Pena Airport,1,-25.5284996,-49.17580032,2988,L,7267,2,12,5016,http://en.wikipedia.org/wiki/Afonso_Pena_International_Airport,,,,
DAB,KDAB,US-FL,Daytona Beach,Daytona Beach International Airport,1,29.179899,-81.058098,34,L,10500,3,18,4375,http://en.wikipedia.org/wiki/Daytona_Beach_International_Airport,,,,
DAL,KDAL,US-TX,Dallas,Dallas Love Field,1,32.847099,-96.851799,487,L,8800,3,16,4569,http://en.wikipedia.org/wiki/Dallas_Love_Field,,,,
DAM,OSDI,SY-DI,Damascus,Damascus International Airport,1,33.41149902,36.5155983,2020,L,11811,2,15,3416,http://en.wikipedia.org/wiki/Damascus_International_Airport,,,,
DAR,HTDA,TZ-02,Dar es Salaam,Julius Nyerere International Airport,1,-6.87811,39.202599,182,L,9843,2,13,3458,http://en.wikipedia.org/wiki/Julius_Nyerere_International_Airport,,,,
DAY,KDAY,US-OH,Dayton,James M Cox Dayton International Airport,1,39.90240097,-84.2193985,1009,L,10900,3,18,3458,http://en.wikipedia.org/wiki/Dayton_International_Airport,,,,
DBQ,KDBQ,US-IA,Dubuque,Dubuque Regional Airport,1,42.40200043,-90.70950317,1077,L,6502,2,12,3666,http://en.wikipedia.org/wiki/Dubuque_Regional_Airport,,,,
DCA,KDCA,US-DC,Washington,Ronald Reagan Washington National Airport,1,38.8521,-77.037697,15,L,6869,3,14,20766,http://en.wikipedia.org/wiki/Ronald_Reagan_Washington_National_Airport,,,,
DEN,KDEN,US-CO,Denver,Denver International Airport,1,39.86169815,-104.6729965,5431,L,16000,6,30,48992,http://en.wikipedia.org/wiki/Denver_International_Airport,,,,
DFW,KDFW,US-TX,Dallas-Fort Worth,Dallas Fort Worth International Airport,1,32.89680099,-97.03800201,607,L,13401,7,30,48016,http://en.wikipedia.org/wiki/Dallas-Fort_Worth_International_Airport,,,,
DKR,GOOY,SN-DK,Dakar,L??opold S??dar Senghor International Airport,1,14.73970032,-17.49020004,85,L,11450,2,15,6779,http://en.wikipedia.org/wiki/Dakar-Yoff-L%C3%A9opold_S%C3%A9dar_Senghor_International_Airport,,,,
DLH,KDLH,US-MN,Duluth,Duluth International Airport,1,46.84209824,-92.19360352,1428,L,10152,2,15,3541,http://en.wikipedia.org/wiki/Duluth_International_Airport,,,,
DME,UUDD,RU-MOS,Moskow,Moscow Domodedovo Airport,1,55.408611,37.906111,183,L,12440,3,21,43999,http://en.wikipedia.org/wiki/Domodedovo_International_Airport,,,,
DMM,OEDF,SA-04,Ad Dammam,King Fahd International Airport,1,26.47120094,49.79790115,72,L,13124,2,17,8785,http://en.wikipedia.org/wiki/King_Fahd_International_Airport,,,,
DOH,QA-0001,QA-DA,Doha,Hamad International Airport,1,25.273056,51.608056,13,L,15912,2,19,20250,http://en.wikipedia.org/wiki/Hamad_International_Airport,,,,
DSM,KDSM,US-IA,Des Moines,Des Moines International Airport,1,41.5340004,-93.6631012,958,L,9003,2,14,3500,http://en.wikipedia.org/wiki/Des_Moines_International_Airport,,,,
DTW,KDTW,US-MI,Detroit,Detroit Metropolitan Wayne County Airport,1,42.21239853,-83.35340118,645,L,12003,6,27,22114,http://en.wikipedia.org/wiki/Detroit_Metropolitan_Wayne_County_Airport,,,,
DUB,EIDW,IE-D,Dublin,Dublin Airport,1,53.42129898,-6.270070076,242,L,8652,3,16,28092,http://en.wikipedia.org/wiki/Dublin_Airport,,,,
DUS,EDDL,DE-NW,Düsseldorf,Düsseldorf Airport,1,51.289501,6.76678,147,L,9842,2,15,29517,http://en.wikipedia.org/wiki/D%C3%BCsseldorf_Airport,,,,
DXB,OMDB,AE-DU,Dubai,Dubai International Airport,1,25.25279999,55.36439896,62,L,13124,2,17,38142,http://en.wikipedia.org/wiki/Dubai_International_Airport,,,,
EDI,EGPH,GB-SCT,Edinburgh,Edinburgh Airport,1,55.95000076,-3.372499943,135,L,8400,3,15,15441,http://en.wikipedia.org/wiki/Edinburgh_Airport,,,,
ERI,KERI,US-PA,Erie,Erie International Tom Ridge Field,1,42.08312701,-80.17386675,732,L,8420,2,14,4250,http://en.wikipedia.org/wiki/Erie_International_Airport,,,,
ERZ,LTCE,TR-25,Erzurum,Erzurum International Airport,1,39.95650101,41.17020035,5763,L,12500,3,18,3500,http://en.wikipedia.org/wiki/Erzurum_Airport,,,,
ESB,LTAC,TR-06,Ankara,Esenbo?a International Airport,1,40.12810135,32.99509811,3125,L,12303,2,16,5447,http://en.wikipedia.org/wiki/Esenbo%C4%9Fa_International_Airport,,,,
EWR,KEWR,US-NJ,Newark,Newark Liberty International Airport,1,40.69250107,-74.16870117,18,L,11000,3,18,30119,http://en.wikipedia.org/wiki/Newark_Liberty_International_Airport,,,,
EXT,EGTE,GB-ENG,Exeter,Exeter International Airport,1,50.7344017,-3.413889885,102,L,6834,2,11,4083,http://en.wikipedia.org/wiki/Exeter_International_Airport,,,,
EZE,SAEZ,AR-B,Buenos Aires,Ministro Pistarini International Airport,1,-34.8222,-58.5358,67,L,10827,2,15,8214,http://en.wikipedia.org/wiki/Ministro_Pistarini_International_Airport,,,,
FAI,PAFA,US-AK,Fairbanks,Fairbanks International Airport,1,64.81510162,-147.8560028,439,L,11800,4,22,3458,http://en.wikipedia.org/wiki/Fairbanks_International_Airport,,,,
FCO,LIRF,IT-62,Rome,Leonardo da Vinci?ÇôFiumicino Airport,1,41.8002778,12.2388889,13,L,12795,4,21,40980,http://en.wikipedia.org/wiki/Leonardo_da_Vinci%E2%80%93Fiumicino_Airport,,,,
FLL,KFLL,US-FL,Fort Lauderdale,Fort Lauderdale Hollywood International Airport,1,26.07259941,-80.15270233,9,L,9000,3,16,22364,http://en.wikipedia.org/wiki/Fort_Lauderdale-Hollywood_International_Airport,,,,
FLN,SBFL,BR-SC,Florian??polis,Herc?¡lio Luz International Airport,1,-27.67027855,-48.55250168,16,L,7546,2,12,3666,http://en.wikipedia.org/wiki/Herc%C3%ADlio_Luz_International_Airport,,,,
FRA,EDDF,DE-HE,Frankfurt am Main,Frankfurt am Main Airport,1,50.033333,8.570556,364,L,13123,4,23,62000,http://en.wikipedia.org/wiki/Frankfurt_Airport,,,,
FSM,KFSM,US-AR,Fort Smith,Fort Smith Regional Airport,1,35.33660126,-94.36740112,469,L,8000,2,14,3833,http://en.wikipedia.org/wiki/Fort_Smith_Regional_Airport,,,,
FWA,KFWA,US-IN,Fort Wayne,Fort Wayne International Airport,1,40.97850037,-85.19509888,814,L,12000,3,19,4083,http://en.wikipedia.org/wiki/Fort_Wayne_International_Airport,,,,
GDL,MMGL,MX-JAL,Guadalajara,Don Miguel Hidalgo Y Costilla International Airport,1,20.52179909,-103.310997,5016,L,13140,2,16,9853,http://en.wikipedia.org/wiki/Don_Miguel_Hidalgo_y_Costilla_International_Airport,,,,
GEG,KGEG,US-WA,Spokane,Spokane International Airport,1,47.61989975,-117.5339966,2376,L,11002,2,16,4125,http://en.wikipedia.org/wiki/Spokane_International_Airport,,,,
GIG,SBGL,BR-RJ,Rio De Janeiro,Rio Gale?úo ?Çô Tom Jobim International Airport,1,-22.80999947,-43.25055695,28,L,13123,2,17,11433,http://en.wikipedia.org/wiki/Rio_de_Janeiro-Gale%C3%A3o_International_Airport,,,,
GLA,EGPF,GB-SCT,Glasgow,Glasgow International Airport,1,55.87189865,-4.433060169,26,L,8720,2,13,9523,http://en.wikipedia.org/wiki/Glasgow_International_Airport,,,,
GMP,RKSS,KR-11,Seoul,Gimpo International Airport,1,37.5583,126.791,59,L,11811,2,17,4782,http://en.wikipedia.org/wiki/Gimpo_International_Airport,,,,
GPT,KGPT,US-MS,Gulfport,Gulfport Biloxi International Airport,1,30.40730095,-89.07009888,28,L,9002,3,17,4041,http://en.wikipedia.org/wiki/Gulfport-Biloxi_International_Airport,,,,
GRB,KGRB,US-WI,Green Bay,Austin Straubel International Airport,1,44.48509979,-88.12960052,695,L,8201,3,16,4291,http://en.wikipedia.org/wiki/Austin_Straubel_International_Airport,,,,
GRU,SBGR,BR-SP,S?úo Paulo,Guarulhos - Governador Andr?? Franco Montoro International Airport,1,-23.43555641,-46.47305679,2459,L,12139,2,16,19989,http://en.wikipedia.org/wiki/S%C3%A3o_Paulo-Guarulhos_International_Airport,,,,
GSO,KGSO,US-NC,Greensboro,Piedmont Triad International Airport,1,36.09780121,-79.93730164,925,L,10001,3,17,4500,http://en.wikipedia.org/wiki/Piedmont_Triad_International_Airport,,,,
GVA,LSGG,CH-GE,Geneva,Geneva Cointrin International Airport,1,46.23809814,6.108950138,1411,L,12795,2,17,20157,http://en.wikipedia.org/wiki/Geneva_Cointrin_International_Airport,,,,
GZT,LTAJ,TR-27,Gaziantep,Gaziantep International Airport,1,36.94720078,37.47869873,2315,L,9843,2,13,3416,http://en.wikipedia.org/wiki/O%C4%9Fuzeli_Airport,,,,
HAJ,EDDV,DE-NI,Hannover,Hannover Airport,1,52.46110153,9.685079575,183,L,12467,3,19,8776,http://en.wikipedia.org/wiki/Hanover/Langenhagen_International_Airport,,,,
HAM,EDDH,DE-HH,Hamburg,Hamburg Airport,1,53.63040161,9.988229752,53,L,12028,2,16,18400,http://en.wikipedia.org/wiki/Hamburg_Airport,,,,
HEL,EFHK,FI-ES,Helsinki,Helsinki Vantaa Airport,1,60.31719971,24.9633007,179,L,11286,3,19,15142,http://en.wikipedia.org/wiki/Helsinki-Vantaa_Airport,,,,
HER,LGIR,GR-91,Heraklion,Heraklion International Nikos Kazantzakis Airport,1,35.33969879,25.18029976,115,L,8800,3,16,12571,http://en.wikipedia.org/wiki/Heraklion_International_Airport%2C_%22Nikos_Kazantzakis%22,,,,
HIB,KHIB,US-MN,Hibbing,Range Regional Airport,1,47.38660049,-92.83899689,1354,L,6758,2,11,4583,http://en.wikipedia.org/wiki/Range_Regional_Airport,,,,
HMO,MMHO,MX-SON,Hermosillo,General Ignacio P. Garcia International Airport,1,29.09589958,-111.0479965,627,L,7546,2,12,3333,http://en.wikipedia.org/wiki/General_Ignacio_Pesqueira_Garcia_International_Airport,,,,
HND,RJTT,JP-13,Tokyo,Tokyo Haneda International Airport,1,35.552299,139.779999,35,L,9840,4,22,19625,http://en.wikipedia.org/wiki/Tokyo_International_Airport,,,,
HNL,PHNL,US-HI,Honolulu,Daniel K Inouye International Airport,1,21.32062,-157.924228,13,L,12300,6,25,13907,http://en.wikipedia.org/wiki/Honolulu_International_Airport,,,,
HOU,KHOU,US-TX,Houston,William P Hobby Airport,1,29.64539909,-95.27890015,46,L,7602,4,18,8370,http://en.wikipedia.org/wiki/William_P._Hobby_Airport,,,,
HSV,KHSV,US-AL,Huntsville,Huntsville International Carl T Jones Field,1,34.6371994,-86.77510071,629,L,12600,2,17,4166,http://en.wikipedia.org/wiki/Huntsville_International_Airport,,,,
HTS,KHTS,US-WV,Huntington,Tri-State/Milton J. Ferguson Field,1,38.36669922,-82.55799866,828,L,6509,2,12,3333,http://en.wikipedia.org/wiki/Tri-State_Airport,,,,
IAD,KIAD,US-DC,Washington,Washington Dulles International Airport,1,38.94449997,-77.45580292,312,L,11501,4,21,21233,http://en.wikipedia.org/wiki/Washington_Dulles_International_Airport,,,,
IAH,KIAH,US-TX,Houston,George Bush Intercontinental Houston Airport,1,29.9843998,-95.34140015,97,L,12001,5,25,27192,http://en.wikipedia.org/wiki/George_Bush_Intercontinental_Airport,,,,
ICN,RKSI,KR-28,Seoul,Incheon International Airport,1,37.46910095,126.4509964,23,L,13000,3,20,40523,http://en.wikipedia.org/wiki/Incheon_International_Airport,,,,
ICT,KICT,US-KS,Wichita,Wichita Mid Continent Airport,1,37.64989853,-97.43309784,1333,L,10301,3,18,3958,http://en.wikipedia.org/wiki/Kansas_City_International_Airport,,,,
IKA,OIIE,IR-07,Tehran,Imam Khomeini International Airport,1,35.41609955,51.15219879,3305,L,13940,2,17,5857,http://en.wikipedia.org/wiki/Imam_Khomeini_International_Airport,,,,
IND,KIND,US-IN,Indianapolis,Indianapolis International Airport,1,39.7173,-86.294403,797,L,11200,3,18,7557,http://en.wikipedia.org/wiki/Indianapolis_International_Airport,,,,
IST,LTBA,TR-34,Istanbul,Atat??rk International Airport,1,40.97689819,28.81459999,163,L,9843,3,17,39635,http://en.wikipedia.org/wiki/Atat%C3%BCrk_International_Airport,,,,
ITM,RJOO,JP-27,Osaka,Osaka International Airport,1,34.78549957,135.4380035,50,L,9840,2,15,4400,http://en.wikipedia.org/wiki/Osaka_International_Airport,,,,
JAN,KJAN,US-MS,Jackson,Jackson-Medgar Wiley Evers International Airport,1,32.31119919,-90.07589722,346,L,8500,2,14,4000,http://en.wikipedia.org/wiki/Jackson-Evers_International_Airport,,,,
JAX,KJAX,US-FL,Jacksonville,Jacksonville International Airport,1,30.49410057,-81.68789673,30,L,10000,2,15,5969,http://en.wikipedia.org/wiki/Jacksonville_International_Airport,,,,
JED,OEJN,SA-02,Jeddah,King Abdulaziz International Airport,1,21.6796,39.156502,48,L,13123,3,20,18707,http://en.wikipedia.org/wiki/King_Abdulaziz_International_Airport,,,,
JFK,KJFK,US-NY,New York,John F Kennedy International Airport,1,40.63980103,-73.77890015,13,L,14572,4,24,59171,http://en.wikipedia.org/wiki/John_F._Kennedy_International_Airport,,,,
JLN,KJLN,US-MO,Joplin,Joplin Regional Airport,1,37.15179825,-94.49829865,981,L,6502,3,14,3791,http://en.wikipedia.org/wiki/Joplin_Regional_Airport,,,,
JNB,FAJS,ZA-GT,Johannesburg,OR Tambo International Airport,1,-26.1392,28.246,5558,L,14495,2,19,17035,http://en.wikipedia.org/wiki/OR_Tambo_International_Airport,,,,
KAN,DNKN,NG-KN,Kano,Mallam Aminu International Airport,1,12.0476,8.52462,1562,L,10831,2,14,4791,http://en.wikipedia.org/wiki/Mallam_Aminu_Kano_International_Airport,,,,
KEF,BIKF,IS-2,Reykjav?¡k,Keflavik International Airport,1,63.98500061,-22.60560036,171,L,10056,2,15,5196,http://en.wikipedia.org/wiki/Keflav%C3%ADk_International_Airport,,,,
KHV,UHHH,RU-KHA,Khabarovsk,Khabarovsk Novy Airport,1,48.528056,135.188333,83,M,4200,2,14,9991,http://en.wikipedia.org/wiki/Khabarovsk_Novy_Airport,,,,
KIX,RJBB,JP-27,Osaka,Kansai International Airport,1,34.4272995,135.2440033,26,L,13123,2,17,18095,http://en.wikipedia.org/wiki/Kansai_International_Airport,,,,
KJA,UNKL,RU-KYA,Krasnoyarsk ,Yemelyanovo International Airport,1,56.171667,92.493333,741,M,3700,1,8,11711,http://en.wikipedia.org/wiki/Krasnoyarsk_Yemelyanovo_Airport,,,,
KMG,ZPPP,CN-53,Kunming,Kunming Changshui International Airport,1,25.1019444,102.9291667,6903,L,4500,2,12,15531,https://en.wikipedia.org/wiki/Kunming_Changshui_International_Airport,,,,
KRR,URKK,RU-KDA,Krasnodar,Krasnodar International Airport,1,45.034722,39.170556,1283,M,3300,1,8,18310,http://en.wikipedia.org/wiki/Pashkovsky_Airport,,,,
KWI,OKBK,KW-FA,Kuwait City,Kuwait International Airport,1,29.22660065,47.96889877,206,L,11483,2,15,15857,http://en.wikipedia.org/wiki/Kuwait_International_Airport,,,,
LAS,KLAS,US-NV,Las Vegas,McCarran International Airport,1,36.08010101,-115.1520004,2181,L,14510,4,23,30750,http://en.wikipedia.org/wiki/McCarran_International_Airport,,,,
LAX,KLAX,US-CA,Los Angeles,Los Angeles International Airport,1,33.94250107,-118.4079971,125,L,12091,4,22,51542,http://en.wikipedia.org/wiki/Los_Angeles_International_Airport,,,,
LBB,KLBB,US-TX,Lubbock,Lubbock Preston Smith International Airport,1,33.663601,-101.822998,3282,L,11500,3,19,3500,http://en.wikipedia.org/wiki/Lubbock_Preston_Smith_International_Airport,,,,
LCK,KLCK,US-OH,Columbus,Rickenbacker International Airport,1,39.813801,-82.927803,744,L,12102,3,19,4458,http://en.wikipedia.org/wiki/Rickenbacker_International_Airport,,,,
LED,ULLI,RU-LEN,Saint Petersburg,Pulkovo Airport,1,59.800278,30.2625,81,L,8200,2,17,31900,http://en.wikipedia.org/wiki/Pulkovo_Airport,,,,
LEJ,EDDP,DE-SN,Leipzig,Leipzig/Halle Airport,1,51.423889,12.236389,465,L,11811,2,16,3857,http://en.wikipedia.org/wiki/Leipzig/Halle_Airport,,,,
LFT,KLFT,US-LA,Lafayette,Lafayette Regional Airport,1,30.20529938,-91.98760223,42,L,7651,3,15,3375,http://en.wikipedia.org/wiki/Lafayette_Regional_Airport,,,,
LGA,KLGA,US-NY,New York,La Guardia Airport,1,40.77719879,-73.87259674,21,L,7000,2,12,21442,http://en.wikipedia.org/wiki/LaGuardia_Airport,,,,
LGG,EBLG,BE-WLG,Li?¿ge,Li?¿ge Airport,1,50.63740158,5.443220139,659,L,12106,2,16,3875,http://en.wikipedia.org/wiki/Li%C3%A8ge_Airport,,,,
LGW,EGKK,GB-ENG,London,London Gatwick Airport,1,51.14810181,-0.190277994,202,L,10364,2,14,46195,http://en.wikipedia.org/wiki/London_Gatwick_Airport,,,,
LHR,EGLL,GB-ENG,London,London Heathrow Airport,1,51.4706,-0.461941,83,L,12799,2,19,69639,http://en.wikipedia.org/wiki/London_Heathrow_Airport,,,,
LIN,LIML,IT-25,Milan,Milano Linate Airport,1,45.445099,9.27674,353,L,8005,2,12,7214,http://en.wikipedia.org/wiki/Linate_Airport,,,,
LIS,LPPT,PT-11,Lisbon,Humberto Delgado Airport (Lisbon Portela Airport),1,38.7813,-9.13592,374,L,12484,2,17,26495,http://en.wikipedia.org/wiki/Lisbon_Portela_Airport,,,,
LIT,KLIT,US-AR,Little Rock,Bill & Hillary Clinton National Airport/Adams Field,1,34.72940063,-92.22429657,262,L,8273,3,16,3750,http://en.wikipedia.org/wiki/Little_Rock_National_Airport,,,,
LOS,DNMM,NG-LA,Lagos,Murtala Muhammed International Airport,1,6.577370167,3.321160078,135,L,12794,2,16,7428,http://en.wikipedia.org/wiki/Murtala_Mohammed_International_Airport,,,,
LPA,GCLP,ES-CN,Gran Canaria Island,Gran Canaria Airport,1,27.93190002,-15.38659954,78,L,10171,2,14,19983,http://en.wikipedia.org/wiki/Gran_Canaria_Airport,,,,
LUN,FLLS,ZM-09,Lusaka,Kenneth Kaunda International Airport Lusaka,1,-15.33080006,28.45260048,3779,L,12998,2,16,4791,http://en.wikipedia.org/wiki/Lusaka_International_Airport,,,,
LUZ,LUZ,PL-LU,Lublin,Lublin Airport,1,51.240278,22.713611,633,M,8268,0,7,2020,http://en.wikipedia.org/wiki/Lublin_Airport,,,,
LYS,LFLL,FR-V,Lyon,Lyon Saint-Exup??ry Airport,1,45.725556,5.081111,821,L,13124,2,17,15910,http://en.wikipedia.org/wiki/Saint-Exup%C3%A9ry_International_Airport,,,,
MAD,LEMD,ES-M,Madrid,Adolfo Su?írez Madrid?ÇôBarajas Airport,1,40.471926,-3.56264,1998,L,13711,4,24,38892,http://en.wikipedia.org/wiki/Adolfo_Su%C3%A1rez_Madrid%E2%80%93Barajas_Airport#cite_note-1,,,,
MAN,EGCC,GB-ENG,Manchester,Manchester Airport,1,53.35369873,-2.274950027,257,L,10000,2,14,30847,http://en.wikipedia.org/wiki/Manchester_Airport,,,,
MBA,HKMO,KE-300,Mombasa,Mombasa Moi International Airport,1,-4.034830093,39.59420013,200,L,10991,2,15,3833,http://en.wikipedia.org/wiki/Moi_International_Airport,,,,
MBS,KMBS,US-MI,Saginaw,MBS International Airport,1,43.53290176,-84.07959747,668,L,8002,2,13,4083,http://en.wikipedia.org/wiki/MBS_International_Airport,,,,
MCI,KMCI,US-MO,Kansas City,Kansas City International Airport,1,39.2976,-94.713898,1026,L,10801,3,18,10933,https://en.wikipedia.org/wiki/Kansas_City_International_Airport,,,,
MCO,KMCO,US-FL,Orlando,Orlando International Airport,1,28.42939949,-81.30899811,96,L,12005,4,22,31882,http://en.wikipedia.org/wiki/Orlando_International_Airport,,,,
MCT,OOMS,OM-MA,Muscat,Muscat International Airport,1,23.59329987,58.28440094,48,L,13123,2,17,13866,http://en.wikipedia.org/wiki/Seeb_International_Airport,,,,
MDW,KMDW,US-IL,Chicago,Chicago Midway International Airport,1,41.7859993,-87.75240326,620,L,6522,5,19,14892,http://en.wikipedia.org/wiki/Chicago_Midway_International_Airport,,,,
MED,OEMA,SA-03,Medina,Prince Mohammad Bin Abdulaziz Airport,1,24.5534,39.705101,2151,L,13149,2,17,3946,http://en.wikipedia.org/wiki/Prince_Mohammad_Bin_Abdulaziz_Airport,,,,
MEL,YMML,AU-VIC,Melbourne,Melbourne International Airport,1,-37.673302,144.843002,434,L,3657,2,12,37574,http://en.wikipedia.org/wiki/Melbourne_Airport,,,,
MEM,KMEM,US-TN,Memphis,Memphis International Airport,1,35.04240036,-89.97669983,341,L,11120,4,21,5730,http://en.wikipedia.org/wiki/Memphis_International_Airport,,,,
MEX,MMMX,MX-DIF,Mexico City,Licenciado Benito Juarez International Airport,1,19.4363,-99.072098,7316,L,12966,2,17,23432,http://en.wikipedia.org/wiki/Mexico_City_International_Airport,,,,
MGM,KMGM,US-AL,Montgomery,Montgomery Regional (Dannelly Field) Airport,1,32.30059814,-86.39399719,221,L,9010,2,15,3708,http://en.wikipedia.org/wiki/Montgomery_Regional_Airport,,,,
MHD,OIMM,IR-30,Mashhad,Mashhad International Airport,1,36.23519897,59.64099884,3263,L,12877,2,16,7041,http://en.wikipedia.org/wiki/Mashhad_International_Airport,,,,
MHT,KMHT,US-NH,Manchester,Manchester Airport,1,42.93259811,-71.43569946,266,L,9250,2,14,4750,http://en.wikipedia.org/wiki/Manchester-Boston_Regional_Airport,,,,
MIA,KMIA,US-FL,Miami,Miami International Airport,1,25.79319954,-80.29060364,8,L,13000,4,22,45123,http://en.wikipedia.org/wiki/Miami_International_Airport,,,,
MKE,KMKE,US-WI,Milwaukee,General Mitchell International Airport,1,42.94720078,-87.89659882,723,L,9690,5,23,7428,http://en.wikipedia.org/wiki/General_Mitchell_International_Airport,,,,
MLA,LMML,MT-25,Valletta,Malta International Airport,1,35.857498,14.4775,300,L,11627,2,16,15201,http://en.wikipedia.org/wiki/Malta_International_Airport,,,,
MLI,KMLI,US-IL,Moline,Quad City International Airport,1,41.44850159,-90.50749969,590,L,10002,3,17,3750,http://en.wikipedia.org/wiki/Quad_City_International_Airport,,,,
MLU,KMLU,US-LA,Monroe,Monroe Regional Airport,1,32.51089859,-92.03769684,79,L,7507,3,15,4083,http://en.wikipedia.org/wiki/Monroe_Regional_Airport,,,,
MMX,ESMS,SE-M,Malm??,Malm?? Sturup Airport,1,55.53630536,13.37619781,236,L,9186,2,13,4416,http://en.wikipedia.org/wiki/Malm%C3%B6_Airport,,,,
MNL,RPLL,PH-U-A,Manila,Ninoy Aquino International Airport,1,14.5086,121.019997,75,L,12261,2,17,21138,http://en.wikipedia.org/wiki/Ninoy_Aquino_International_Airport,,,,
MOB,KMOB,US-AL,Mobile,Mobile Regional Airport,1,30.69120026,-88.24279785,219,L,8521,2,14,4083,http://en.wikipedia.org/wiki/Mobile_Regional_Airport,,,,
MRS,LFML,FR-U,Marseille,Marseille Provence Airport,1,43.43927192,5.221424103,74,L,11483,2,16,16190,http://en.wikipedia.org/wiki/Marseille_Provence_Airport,,,,
MSN,KMSN,US-WI,Madison,Dane County Regional Truax Field,1,43.13990021,-89.33750153,887,L,9005,3,17,3416,http://en.wikipedia.org/wiki/Dane_County_Regional_Airport,,,,
MSP,KMSP,US-MN,Minneapolis,Minneapolis-St Paul International/Wold-Chamberlain Airport,1,44.88199997,-93.22180176,841,L,11006,4,22,21700,http://en.wikipedia.org/wiki/Minneapolis-Saint_Paul_International_Airport,,,,
MSY,KMSY,US-LA,New Orleans,Louis Armstrong New Orleans International Airport,1,29.99340057,-90.25800323,4,L,10104,3,17,16557,http://en.wikipedia.org/wiki/Louis_Armstrong_New_Orleans_International_Airport,,,,
MTY,MMMY,MX-NLE,Monterrey,General Mariano Escobedo International Airport,1,25.7784996,-100.1070023,1278,L,9843,2,14,9685,http://en.wikipedia.org/wiki/General_Mariano_Escobedo_International_Airport,,,,
MUC,EDDM,DE-BY,Munich,Munich Airport,1,48.353802,11.7861,1487,L,13123,2,18,41619,http://en.wikipedia.org/wiki/Munich_International_Airport,,,,
MXP,LIMC,IT-25,Milan,Malpensa International Airport,1,45.6306,8.72811,768,L,12861,2,17,18742,http://en.wikipedia.org/wiki/Malpensa_Airport,,,,
NAS,MYNN,BS-NP,Nassau,Lynden Pindling International Airport,1,25.03899956,-77.46620178,16,L,11353,2,16,8694,http://en.wikipedia.org/wiki/Lynden_Pindling_International_Airport,,,,
NAY,ZBNY,CN-11,Beijing,Beijing Nanyuan Airport,1,39.78279877,116.3880005,0,L,2900,1,5,25881,http://en.wikipedia.org/wiki/Nanyuan_Airport,,,,
NCE,LFMN,FR-U,Nice,Nice-C??te d'Azur Airport,1,43.65840149,7.215869904,12,L,9712,2,14,15428,http://en.wikipedia.org/wiki/C%C3%B4te_d'Azur_International_Airport,,,,
NKC,GQNO,MR-NKC,Nouakchott,Nouakchott?ÇôOumtounsy International Airport,1,18.31,-15.9697222,9,L,11155,2,15,3583,https://en.wikipedia.org/wiki/Nouakchott%E2%80%93Oumtounsy_International_Airport,,,,
NKG,ZSNJ,CN-32,Nanjing,Nanjing Lukou Airport,1,31.74200058,118.8619995,49,L,3600,2,12,17365,http://en.wikipedia.org/wiki/Nanjing_Lukou_International_Airport,,,,
NRT,RJAA,JP-12,Tokyo,Narita International Airport,1,35.76470184,140.3860016,141,L,13123,2,19,33707,http://en.wikipedia.org/wiki/Narita_International_Airport,,,,
NWI,EGSH,GB-ENG,Norwich,Norwich International Airport,1,52.67580032,1.282780051,117,L,6040,2,11,4250,http://en.wikipedia.org/wiki/Norwich_International_Airport,,,,
OAK,KOAK,US-CA,Oakland,Metropolitan Oakland International Airport,1,37.721298,-122.221001,9,L,10000,4,20,5657,http://en.wikipedia.org/wiki/Oakland_International_Airport,,,,
OKC,KOKC,US-OK,Oklahoma City,Will Rogers World Airport,1,35.39310074,-97.60070038,1295,L,9802,4,19,5333,http://en.wikipedia.org/wiki/Will_Rogers_World_Airport,,,,
ONT,KONT,US-CA,Ontario,Ontario International Airport,1,34.05599976,-117.6009979,944,L,12198,2,16,4666,http://en.wikipedia.org/wiki/LA/Ontario_International_Airport,,,,
ORD,KORD,US-IL,Chicago,Chicago O'Hare International Airport,1,41.97859955,-87.90480042,672,L,13000,9,35,76392,http://en.wikipedia.org/wiki/O'Hare_International_Airport,,,,
ORF,KORF,US-VA,Norfolk,Norfolk International Airport,1,36.89459991,-76.20120239,26,L,9001,2,14,4028,http://en.wikipedia.org/wiki/Norfolk_International_Airport,,,,
ORK,EICK,IE-C,Cork,Cork Airport,1,51.84130096,-8.491109848,502,L,6998,2,11,4166,http://en.wikipedia.org/wiki/Cork_Airport,,,,
ORY,LFPO,FR-J,Paris,Paris-Orly Airport,1,48.7233333,2.3794444,291,L,11975,3,18,22253,http://en.wikipedia.org/wiki/Orly_Airport_(Paris),,,,
OSL,ENGM,NO-02,Oslo,Oslo Gardermoen Airport,1,60.19390106,11.10039997,681,L,11811,2,17,18857,https://en.wikipedia.org/wiki/Oslo_Airport,_Gardermoen,,,
OTP,LROP,RO-B,Bucharest,Henri Coand?â International Airport,1,44.5711111,26.085,314,L,11484,2,15,14666,http://en.wikipedia.org/wiki/Henri_Coand%C4%83_International_Airport,,,,
OVB,UNNT,RU-NVS,Novosibirsk ,Tolmachevo Airport,1,55.0125,82.650556,381,L,3600,2,11,19550,http://en.wikipedia.org/wiki/Tolmachevo_Airport,,,,
PBI,KPBI,US-FL,West Palm Beach,Palm Beach International Airport,1,26.68320084,-80.09559631,19,L,10008,3,18,5814,http://en.wikipedia.org/wiki/Palm_Beach_International_Airport,,,,
PDX,KPDX,US-OR,Portland,Portland International Airport,1,45.58869934,-122.5979996,31,L,11000,3,19,11703,http://en.wikipedia.org/wiki/Portland_International_Airport,,,,
PEK,ZBAA,CN-11,Beijing,Beijing Capital International Airport,1,40.08010101,116.5849991,116,L,3800,3,18,44796,http://en.wikipedia.org/wiki/Beijing_Capital_International_Airport,,,,
PER,YPPH,AU-WA,Perth,Perth International Airport,1,-31.94029999,115.9670029,67,L,3444,2,12,21710,http://en.wikipedia.org/wiki/Perth_Airport,,,,
PHF,KPHF,US-VA,Newport News,Newport News Williamsburg International Airport,1,37.13190079,-76.49299622,42,L,8003,2,13,4208,http://en.wikipedia.org/wiki/Newport_News/Williamsburg_International_Airport,,,,
PHL,KPHL,US-PA,Philadelphia,Philadelphia International Airport,1,39.87189865,-75.2410965,36,L,10506,4,20,39221,http://en.wikipedia.org/wiki/Philadelphia_International_Airport,,,,
PHX,KPHX,US-AZ,Phoenix,Phoenix Sky Harbor International Airport,1,33.43429947,-112.012001,1135,L,11489,3,19,26892,http://en.wikipedia.org/wiki/Phoenix_Sky_Harbor_International_Airport,,,,
PIA,KPIA,US-IL,Peoria,General Wayne A. Downing Peoria International Airport,1,40.66419983,-89.69329834,660,L,10104,2,15,3875,http://en.wikipedia.org/wiki/General_Wayne_A._Downing_Peoria_International_Airport,,,,
PIT,KPIT,US-PA,Pittsburgh,Pittsburgh International Airport,1,40.49150085,-80.23290253,1203,L,11500,4,22,7664,http://en.wikipedia.org/wiki/Pittsburgh_International_Airport,,,,
PMI,LEPA,ES-PM,Palma De Mallorca,Palma De Mallorca Airport,1,39.55170059,2.738810062,27,L,10728,2,15,35810,http://en.wikipedia.org/wiki/Son_Sant_Joan_Airport,,,,
PMO,LICJ,IT-82,Palermo,Falcone?ÇôBorsellino Airport,1,38.175999,13.091,65,L,10912,2,14,8100,http://en.wikipedia.org/wiki/Falcone%E2%80%93Borsellino_Airport,,,,
POM,AYPY,PG-NCD,Port Moresby,Port Moresby Jacksons International Airport,1,-9.443380356,147.2200012,146,L,9022,2,13,6376,http://en.wikipedia.org/wiki/Jacksons_International_Airport,,,,
POZ,EPPO,PL-WP,Pozna?ä,Pozna?ä-?üawica Airport,1,52.42100143,16.82629967,308,L,8215,2,12,3791,http://en.wikipedia.org/wiki/Pozna%C5%84-%C5%81awica_Airport,,,,
PRG,LKPR,CZ-PR,Prague,V?íclav Havel Airport Prague,1,50.1008,14.26,1247,L,12189,3,19,19928,http://en.wikipedia.org/wiki/Ruzyn%C4%9B_International_Airport,,,,
PSA,LIRP,IT-52,Pisa,Pisa International Airport,1,43.683899,10.3927,6,L,9820,2,13,9228,http://en.wikipedia.org/wiki/Pisa_International_Airport,,,,
PTY,MPTO,PA-8,Tocumen,Tocumen International Airport,1,9.071359634,-79.38349915,135,L,10006,2,15,10347,http://en.wikipedia.org/wiki/Tocumen_International_Airport,,,,
PUJ,MDPC,DO-11,Punta Cana,Punta Cana International Airport,1,18.56739998,-68.36340332,47,L,10171,2,14,9472,http://en.wikipedia.org/wiki/Punta_Cana_International_Airport,,,,
PUS,RKPK,KR-26,Busan,Gimhae International Airport,1,35.17950058,128.9380035,6,L,10499,2,15,9523,http://en.wikipedia.org/wiki/Gimhae_International_Airport,,,,
PVG,ZSPD,CN-31,Shanghai,Shanghai Pudong International Airport,1,31.14340019,121.8050003,13,L,4000,4,24,89741,http://en.wikipedia.org/wiki/Shanghai_Pudong_International_Airport,,,,
PWM,KPWM,US-ME,Portland,Portland International Jetport Airport,1,43.64619827,-70.30930328,76,L,7200,2,12,3500,http://en.wikipedia.org/wiki/Portland_International_Jetport,,,,
RDU,KRDU,US-NC,Raleigh/Durham,Raleigh Durham International Airport,1,35.87760162,-78.78749847,435,L,10000,3,18,10671,http://en.wikipedia.org/wiki/Raleigh-Durham_International_Airport,,,,
RFD,KRFD,US-IL,Chicago/Rockford,Chicago Rockford International Airport,1,42.19540024,-89.09719849,742,L,10004,2,15,4083,http://en.wikipedia.org/wiki/Chicago/Rockford_International_Airport,,,,
RIC,KRIC,US-VA,Richmond,Richmond International Airport,1,37.50519943,-77.31970215,167,L,9003,3,17,4885,http://en.wikipedia.org/wiki/Richmond_International_Airport,,,,
RNO,KRNO,US-NV,Reno,Reno Tahoe International Airport,1,39.49909973,-119.7679977,4415,L,11002,3,18,3583,http://en.wikipedia.org/wiki/Reno-Tahoe_International_Airport,,,,
ROA,KROA,US-VA,Roanoke,Roanoke?ÇôBlacksburg Regional Airport,1,37.3255,-79.975403,1175,L,6800,2,12,3625,http://en.wikipedia.org/wiki/Roanoke%E2%80%93Blacksburg_Regional_Airport,,,,
ROC,KROC,US-NY,Rochester,Greater Rochester International Airport,1,43.1189003,-77.67240143,559,L,8001,3,16,3791,http://en.wikipedia.org/wiki/Greater_Rochester_International_Airport,,,,
RST,KRST,US-MN,Rochester,Rochester International Airport,1,43.90829849,-92.5,1317,L,9033,2,14,4083,http://en.wikipedia.org/wiki/Rochester_International_Airport,,,,
RUH,OERK,SA-01,Riyadh,King Khaled International Airport,1,24.95759964,46.69879913,2049,L,13796,2,17,14678,http://en.wikipedia.org/wiki/King_Khalid_International_Airport,,,,
SAL,MSLP,SV-PA,San Salvador (San Luis Talpa),Monse??or ?ôscar Arnulfo Romero International Airport,1,13.4409,-89.055702,101,L,10500,2,15,6940,https://en.wikipedia.org/wiki/Monse%C3%B1or_%C3%93scar_Arnulfo_Romero_International_Airport,,,,
SAT,KSAT,US-TX,San Antonio,San Antonio International Airport,1,29.53370094,-98.46980286,809,L,8502,3,16,8419,http://en.wikipedia.org/wiki/San_Antonio_International_Airport,,,,
SAV,KSAV,US-GA,Savannah,Savannah Hilton Head International Airport,1,32.12760162,-81.20210266,50,L,9351,2,15,3750,http://en.wikipedia.org/wiki/Savannah/Hilton_Head_International_Airport,,,,
SBN,KSBN,US-IN,South Bend,South Bend Regional Airport,1,41.70869827,-86.31729889,799,L,8412,3,16,4750,http://en.wikipedia.org/wiki/South_Bend_Regional_Airport,,,,
SCL,SCEL,CL-RM,Santiago,Comodoro Arturo Merino Ben?¡tez International Airport,1,-33.39300156,-70.78579712,1555,L,12303,2,17,10627,http://en.wikipedia.org/wiki/Comodoro_Arturo_Merino_Ben%C3%ADtez_International_Airport,,,,
SDF,KSDF,US-KY,Louisville,Louisville International Standiford Field,1,38.1744,-85.736,501,L,10850,3,18,5466,http://en.wikipedia.org/wiki/Louisville_International_Airport,,,,
SEA,KSEA,US-WA,Seattle,Seattle Tacoma International Airport,1,47.44900131,-122.3089981,433,L,11900,3,19,26321,http://en.wikipedia.org/wiki/Seattle-Tacoma_International_Airport,,,,
SFB,KSFB,US-FL,Orlando,Orlando Sanford International Airport,1,28.77759933,-81.23750305,55,L,9600,4,19,5541,http://en.wikipedia.org/wiki/Orlando_Sanford_International_Airport,,,,
SFO,KSFO,US-CA,San Francisco,San Francisco International Airport,1,37.61899948,-122.375,13,L,11870,4,22,27567,http://en.wikipedia.org/wiki/San_Francisco_International_Airport,,,,
SGF,KSGF,US-MO,Springfield,Springfield Branson National Airport,1,37.24570084,-93.38860321,1268,L,8000,2,13,4458,http://en.wikipedia.org/wiki/Springfield/Branson_National_Airport,,,,
SHA,ZSSS,CN-31,Shanghai,Shanghai Hongqiao International Airport,1,31.19790077,121.3359985,10,L,3400,2,12,23478,http://en.wikipedia.org/wiki/Shanghai_Hongqiao_International_Airport,,,,
SHV,KSHV,US-LA,Shreveport,Shreveport Regional Airport,1,32.44660187,-93.82559967,258,L,8351,2,13,3750,http://en.wikipedia.org/wiki/Shreveport_Regional_Airport,,,,
SJC,KSJC,US-CA,San Jose,Norman Y. Mineta San Jose International Airport,1,37.362598,-121.929001,62,L,11000,3,18,6571,http://en.wikipedia.org/wiki/San_Jose_International_Airport,,,,
SKG,LGTS,GR-54,Thessaloniki,Thessaloniki Macedonia International Airport,1,40.5196991,22.97089958,22,L,8005,2,13,9321,http://en.wikipedia.org/wiki/Thessaloniki_International_Airport%2C_%22Macedonia%22,,,,
SLC,KSLC,US-UT,Salt Lake City,Salt Lake City International Airport,1,40.78839874,-111.9779968,4227,L,12004,4,22,18967,http://en.wikipedia.org/wiki/Salt_Lake_City_International_Airport,,,,
SMF,KSMF,US-CA,Sacramento,Sacramento International Airport,1,38.69540024,-121.5910034,27,L,8601,2,13,5500,http://en.wikipedia.org/wiki/Sacramento_International_Airport,,,,
SNA,KSNA,US-CA,Santa Ana,John Wayne Airport-Orange County Airport,1,33.67570114,-117.8679962,56,L,5700,2,12,5250,http://en.wikipedia.org/wiki/John_Wayne_Airport,,,,
SNN,EINN,IE-CE,Limerick,Shannon Airport,1,52.70199966,-8.924819946,46,L,10495,5,22,4416,http://en.wikipedia.org/wiki/Shannon_Airport,,,,
SPI,KSPI,US-IL,Springfield,Abraham Lincoln Capital Airport,1,39.84410095,-89.67790222,598,L,7999,3,16,4416,http://en.wikipedia.org/wiki/Abraham_Lincoln_Capital_Airport,,,,
SPS,KSPS,US-TX,Wichita Falls,Sheppard Air Force Base-Wichita Falls Municipal Airport,1,33.9888,-98.491898,1019,L,13101,4,23,3708,http://en.wikipedia.org/wiki/Wichita_Falls_Municipal_Airport,,,,
SRQ,KSRQ,US-FL,Sarasota/Bradenton,Sarasota Bradenton International Airport,1,27.39539909,-82.55439758,30,L,9500,2,15,4041,http://en.wikipedia.org/wiki/Sarasota-Bradenton_International_Airport,,,,
SSA,SBSV,BR-BA,Salvador,Deputado Luiz Eduardo Magalh?úes International Airport,1,-12.9086113,-38.32249832,64,L,9859,2,14,6697,http://en.wikipedia.org/wiki/Deputado_Lu%C3%ADs_Eduardo_Magalh%C3%A3es_International_Airport,,,,
STL,KSTL,US-MO,St Louis,St Louis Lambert International Airport,1,38.748697,-90.370003,618,L,11019,4,22,10992,http://en.wikipedia.org/wiki/Lambert-St._Louis_International_Airport,,,,
SUX,KSUX,US-IA,Sioux City,Sioux Gateway Col. Bud Day Field,1,42.40259933,-96.38439941,1098,L,9002,2,14,4041,http://en.wikipedia.org/wiki/Sioux_Gateway_Airport,,,,
SVG,ENZV,NO-11,Stavanger,Stavanger Airport Sola,1,58.87670135,5.63778019,29,L,9369,2,14,5207,http://en.wikipedia.org/wiki/Stavanger_Airport,_Sola,,,
SVO,UUEE,RU-MOS,Moskow,Sheremetyevo International Airport,1,55.972778,37.414,181,L,3700,2,19,51810,http://en.wikipedia.org/wiki/Sheremetyevo_International_Airport,,,,
SVX,USSS,RU-SVE,Yekaterinburg,Koltsovo Airport,1,56.741389,60.803611,320,L,3026,2,19,26950,http://en.wikipedia.org/wiki/Koltsovo_Airport,,,,
SXF,EDDB,DE-BR,Berlin,Berlin-Schönefeld Airport,1,52.380001,13.5225,157,L,9843,2,15,11066,http://en.wikipedia.org/wiki/Berlin-Sch%C3%B6nefeld_International_Airport,,,,
SYD,YSSY,AU-NSW,Sydney,Sydney Kingsford Smith International Airport,1,-33.94609833,151.177002,21,L,3962,3,18,59577,http://en.wikipedia.org/wiki/Kingsford_Smith_International_Airport,,,,
SYR,KSYR,US-NY,Syracuse,Syracuse Hancock International Airport,1,43.11119843,-76.10630035,421,L,9003,3,16,3625,http://en.wikipedia.org/wiki/Syracuse_Hancock_International_Airport,,,,
SYZ,OISS,IR-14,Shiraz,Shiraz Shahid Dastghaib International Airport,1,29.53919983,52.58980179,4920,L,14345,2,17,4689,http://en.wikipedia.org/wiki/Shiraz_International_Airport,,,,
TBZ,OITT,IR-01,Tabriz,Tabriz International Airport,1,38.13389969,46.23500061,4459,L,11825,2,15,3500,http://en.wikipedia.org/wiki/Tabriz_International_Airport,,,,
TGD,LYPG,ME-16,Podgorica,Podgorica Airport,1,42.359402,19.2519,141,L,8202,2,12,3583,http://en.wikipedia.org/wiki/Podgorica_Airport,,,,
THR,OIII,IR-07,Tehran,Mehrabad International Airport,1,35.68920135,51.31340027,3962,L,13248,3,19,8488,http://en.wikipedia.org/wiki/Mehrabad_International_Airport,,,,
TIP,HLLT,LY-TB,Tripoli,Tripoli International Airport,1,32.66350174,13.1590004,263,L,11815,2,16,4685,http://en.wikipedia.org/wiki/Tripoli_International_Airport,,,,
TLH,KTLH,US-FL,Tallahassee,Tallahassee Regional Airport,1,30.39649963,-84.35030365,81,L,8000,2,13,4375,http://en.wikipedia.org/wiki/Tallahassee_Regional_Airport,,,,
TLS,LFBO,FR-N,Toulouse/Blagnac,Toulouse-Blagnac Airport,1,43.629101,1.36382,499,L,11483,2,16,8264,http://en.wikipedia.org/wiki/Toulouse_Blagnac_International_Airport,,,,
TLV,LLBG,IL-M,Tel Aviv,Ben Gurion International Airport,1,32.01139832,34.88669968,135,L,13327,3,20,15866,http://en.wikipedia.org/wiki/Ben_Gurion_International_Airport,,,,
TOL,KTOL,US-OH,Toledo,Toledo Express Airport,1,41.58679962,-83.80780029,683,L,10600,2,15,3708,http://en.wikipedia.org/wiki/Toledo_Express_Airport,,,,
TPA,KTPA,US-FL,Tampa,Tampa International Airport,1,27.97550011,-82.53320313,26,L,11002,3,18,13307,http://en.wikipedia.org/wiki/Tampa_International_Airport,,,,
TPE,RCTP,TW-TAO,Taipei,Taiwan Taoyuan International Airport,1,25.0777,121.233002,106,L,12008,2,17,27657,https://zh.wikipedia.org/wiki/%E8%87%BA%E7%81%A3%E6%A1%83%E5%9C%92%E5%9C%8B%E9%9A%9B%E6%A9%9F%E5%A0%B4,,,,
TRD,ENVA,NO-17,Trondheim,Trondheim Airport V?ªrnes,1,63.4578018,10.9239998,56,L,9052,3,16,5866,http://en.wikipedia.org/wiki/Trondheim_Airport%2C_V%C3%A6rnes,,,,
TRI,KTRI,US-TN,Bristol/Johnson/Kingsport,Tri-Cities Regional TN/VA Airport,1,36.475201,-82.407401,1519,L,8030,2,13,3791,http://en.wikipedia.org/wiki/Tri-Cities_Regional_Airport,,,,
TSN,ZBTJ,CN-12,Tianjin,Tianjin Binhai International Airport,1,39.12440109,117.3460007,10,L,3295,2,12,21711,http://en.wikipedia.org/wiki/Tianjin_Binhai_International_Airport,,,,
TUL,KTUL,US-OK,Tulsa,Tulsa International Airport,1,36.19839859,-95.88809967,677,L,9999,3,18,4291,http://en.wikipedia.org/wiki/Tulsa_International_Airport,,,,
TUN,DTTA,TN-11,Tunis,Tunis Carthage International Airport,1,36.85100174,10.22719955,22,L,10499,2,14,10667,http://en.wikipedia.org/wiki/Tunis-Carthage_International_Airport,,,,
TUS,KTUS,US-AZ,Tucson,Tucson International Airport,1,32.11610031,-110.9410019,2643,L,10996,3,18,3500,http://en.wikipedia.org/wiki/Tucson_International_Airport,,,,
TXL,EDDT,DE-BE,Berlin,Berlin-Tegel Airport,1,52.5597,13.2877,122,L,9918,2,15,25752,http://en.wikipedia.org/wiki/Berlin-Tegel_International_Airport,,,,
TYS,KTYS,US-TN,Knoxville,McGhee Tyson Airport,1,35.81100082,-83.9940033,981,L,9005,2,15,3916,http://en.wikipedia.org/wiki/McGhee_Tyson_Airport,,,,
UFA,UWUU,RU-BA,Ufa,Ufa International Airport,1,54.563611,55.880278,1410,M,3761,2,11,17138,http://en.wikipedia.org/wiki/Ufa_International_Airport,,,,
VCE,LIPZ,IT-34,Venice,Venice Marco Polo Airport,1,45.505299,12.3519,7,L,10827,2,15,15395,http://en.wikipedia.org/wiki/Venice_Marco_Polo_Airport,,,,
VDA,LLOV,IL-D,Eilat,Ovda International Airport,1,29.94029999,34.93579865,1492,L,9843,2,13,4041,http://en.wikipedia.org/wiki/Ovda_International_Airport,,,,
VIE,LOWW,AT-9,Vienna,Vienna International Airport,1,48.11029816,16.56970024,600,L,11811,2,16,34466,http://en.wikipedia.org/wiki/Vienna_International_Airport,,,,
VKO,UUWW,RU-MOS,Moskow,Vnukovo International Airport,1,55.596111,37.2675,204,L,3500,2,14,32100,http://en.wikipedia.org/wiki/Vnukovo_International_Airport,,,,
VPS,KVPS,US-FL,Valparaiso,Destin-Ft Walton Beach Airport,1,30.4832,-86.525398,87,L,12005,2,17,4625,https://en.wikipedia.org/wiki/Destin%E2%80%93Fort_Walton_Beach_Airport,,,,
VVO,UHW,RU-PRI,Vladivostok,Vladivostok International Airport,1,43.399167,132.151389,28,L,3500,3,20,10007,http://en.wikipedia.org/wiki/Vladivostok_International_Airport,,,,
WAW,EPWA,PL-MZ,Warsaw,Warsaw Chopin Airport,1,52.16569901,20.96710014,362,L,12106,2,16,11714,http://en.wikipedia.org/wiki/Warsaw_Frederic_Chopin_Airport,,,,
WNZ,ZSWZ,CN-33,Wenzhou,Wenzhou Longwan International Airport,1,27.912201,120.851997,0,L,3200,1,5,27860,https://en.wikipedia.org/wiki/Wenzhou_Longwan_International_Airport,,,,
YEG,CYEG,CA-AB,Edmonton,Edmonton International Airport,1,53.30970001,-113.5800018,2373,L,11000,2,16,8823,http://en.wikipedia.org/wiki/Edmonton_International_Airport,,,,
YHZ,CYHZ,CA-NS,Halifax,Halifax / Stanfield International Airport,1,44.88079834,-63.50859833,477,L,10500,2,15,4658,http://en.wikipedia.org/wiki/Halifax_International_Airport,,,,
YOW,CYOW,CA-ON,Ottawa,Ottawa Macdonald-Cartier International Airport,1,45.32249832,-75.66919708,374,L,10000,3,18,6160,http://en.wikipedia.org/wiki/Ottawa_Macdonald-Cartier_International_Airport,,,,
YUL,CYUL,CA-QC,Montr??al,Montreal / Pierre Elliott Trudeau International Airport,1,45.47060013,-73.74079895,118,L,11000,3,19,23345,http://en.wikipedia.org/wiki/Montr%C3%A9al-Pierre_Elliott_Trudeau_International_Airport,,,,
YVR,CYVR,CA-BC,Vancouver,Vancouver International Airport,1,49.19390106,-123.1839981,14,L,11500,4,21,15423,http://en.wikipedia.org/wiki/Vancouver_International_Airport,,,,
YWG,CYWG,CA-MB,Winnipeg,Winnipeg / James Armstrong Richardson International Airport,1,49.90999985,-97.23989868,783,L,11000,3,19,4100,http://en.wikipedia.org/wiki/Winnipeg_James_Armstrong_Richardson_International_Airport,,,,
YYC,CYYC,CA-AB,Calgary,Calgary International Airport,1,51.11389923,-114.0199966,3557,L,14000,4,25,11910,http://en.wikipedia.org/wiki/Calgary_International_Airport,,,,
YYJ,CYYJ,CA-BC,Victoria,Victoria International Airport,1,48.64690018,-123.4260025,63,L,7000,3,16,3541,http://en.wikipedia.org/wiki/Victoria_International_Airport,,,,
YYT,CYYT,CA-NL,St. John's,St. John's International Airport,1,47.61859894,-52.75189972,461,L,8502,3,16,4000,http://en.wikipedia.org/wiki/St._John's_International_Airport,,,,
YYZ,CYYZ,CA-ON,Toronto,Lester B. Pearson International Airport,1,43.67720032,-79.63059998,569,L,11120,5,25,35585,http://en.wikipedia.org/wiki/Toronto_Pearson_International_Airport,,,,
ZRH,LSZH,CH-ZH,Zurich,Z??rich Airport,1,47.464699,8.54917,1416,L,12139,3,19,23523,http://en.wikipedia.org/wiki/Z%C3%BCrich_Airport,,,,
AAA,NTGA,PF-U-A,,Anaa Airport,0,-17.3526001,-145.5099945,10,M,4921,1,6,2354,http://en.wikipedia.org/wiki/Anaa_Airport,,,,
AAC,HEAR,EG-SIN,El Arish,El Arish International Airport,0,31.07329941,33.83580017,121,M,9905,1,11,2104,http://en.wikipedia.org/wiki/El_Arish_International_Airport,,,,
AAE,DABB,DZ-36,Annaba,Rabah Bitat Airport,0,36.822201,7.809174,16,M,9843,2,13,1770,http://en.wikipedia.org/wiki/Rabah_Bitat_Airport,,,,
AAM,FAMD,ZA-NP,Malamala,Malamala Airport,0,-24.81809998,31.54459953,1124,M,4145,1,6,2375,http://en.wikipedia.org/wiki/Mala_Mala_Airport,,,,
AAN,OMAL,AE-AZ,Al Ain,Al Ain International Airport,0,24.26169968,55.60919952,869,M,13123,1,14,2291,http://en.wikipedia.org/wiki/Al_Ain_International_Airport,,,,
AAQ,URKA,RU-KDA,Anapa,Anapa Vityazevo Airport,0,45.0021019,37.34730148,174,M,2500,1,5,1769,http://en.wikipedia.org/wiki/Anapa_Airport,,,,
AAR,EKAH,DK-82,Aarhus,Aarhus Airport,0,56.29999924,10.61900043,82,M,9111,2,13,2104,http://en.wikipedia.org/wiki/Aarhus_Airport,,,,
AAT,ZWAT,CN-65,Altay,Altay Air Base,0,47.74988556,88.0858078,2460,M,2900,1,5,9073,http://en.wikipedia.org/wiki/Altay_Airport,,,,
AAY,OYGD,YE-MR,,Al Ghaidah International Airport,0,16.19169998,52.17499924,134,M,8858,1,10,1875,http://en.wikipedia.org/wiki/Al_Ghaydah_Airport,,,,
ABA,UNAA,RU-KK,Abakan,Abakan Airport,0,53.74000168,91.38500214,831,M,3250,3,5,3369,http://en.wikipedia.org/wiki/Abakan_Airport,,,,
ABC,LEAB,ES-CM,Albacete,Albacete-Los Llanos Airport,0,38.94850159,-1.863520026,2302,M,8858,1,10,1687,http://en.wikipedia.org/wiki/Albacete_Airport,,,,
ABD,OIAA,IR-10,Abadan,Abadan Airport,0,30.37109947,48.22829819,10,M,10169,2,13,2229,http://en.wikipedia.org/wiki/Abadan_Airport,,,,
ABE,KABE,US-PA,Allentown,Lehigh Valley International Airport,0,40.65209961,-75.44080353,393,M,7600,2,13,2145,http://en.wikipedia.org/wiki/Lehigh_Valley_International_Airport,,,,
ABI,KABI,US-TX,Abilene,Abilene Regional Airport,0,32.41130066,-99.68190002,1791,M,7202,3,15,2250,http://en.wikipedia.org/wiki/Abilene_Regional_Airport,,,,
ABJ,DIAP,CI-01,Abidjan,Port Bouet Airport,0,5.261390209,-3.926290035,21,M,9843,1,12,5364,http://en.wikipedia.org/wiki/Port_Bouet_Airport,,,,
ABM,YNPE,AU-QLD,Bamaga,Northern Peninsula Airport,0,-10.9508,142.459,34,M,2600,1,5,5760,http://en.wikipedia.org/wiki/Bamaga_Airport,,,,
ABR,KABR,US-SD,Aberdeen,Aberdeen Regional Airport,0,45.44910049,-98.42179871,1302,M,6901,2,12,2020,http://en.wikipedia.org/wiki/Aberdeen_Regional_Airport,,,,
ABS,HEBL,EG-ASN,Abu Simbel,Abu Simbel Airport,0,22.37599945,31.61170006,616,M,9843,1,11,2229,http://en.wikipedia.org/wiki/Abu_Simbel_Airport,,,,
ABT,OEBA,SA-11,,Al Baha Airport,0,20.29610062,41.63430023,5486,M,10991,1,12,2000,http://en.wikipedia.org/wiki/Al-Baha_Domestic_Airport,,,,
ABV,DNAA,NG-FC,Abuja,Nnamdi Azikiwe International Airport,0,9.006790161,7.263169765,1123,L,11842,1,13,5750,http://en.wikipedia.org/wiki/Nnamdi_Azikiwe_International_Airport,,,,
ABX,YMAY,AU-NSW,Albury,Albury Airport,0,-36.06779861,146.9579926,539,M,1900,1,5,5219,http://en.wikipedia.org/wiki/Albury_Airport,,,,
ABY,KABY,US-GA,Albany,Southwest Georgia Regional Airport,0,31.53549957,-84.19450378,197,M,6601,2,12,1708,http://en.wikipedia.org/wiki/Southwest_Georgia_Regional_Airport,,,,
ACC,DGAA,GH-AA,Accra,Kotoka International Airport,0,5.6051898,-0.166786,205,L,11165,1,12,10912,http://en.wikipedia.org/wiki/Kotoka_International_Airport,,,,
ACE,GCRR,ES-CN,Lanzarote Island,Lanzarote Airport,0,28.94549942,-13.60519981,46,M,7874,1,10,11237,http://en.wikipedia.org/wiki/Arrecife_Airport,,,,
ACH,LSZR,CH-SG,Altenrhein,St Gallen Altenrhein Airport,0,47.48500061,9.560770035,1306,M,4922,3,13,2145,http://en.wikipedia.org/wiki/St._Gallen-Altenrhein_Airport,,,,
ACI,EGJA,GG-U-A,Saint Anne,Alderney Airport,0,49.706104,-2.21472,290,M,2887,3,10,2104,http://en.wikipedia.org/wiki/Alderney_Airport,,,,
ACK,KACK,US-MA,Nantucket,Nantucket Memorial Airport,0,41.25310135,-70.06020355,47,M,6303,3,14,1729,http://en.wikipedia.org/wiki/Nantucket_Memorial_Airport,,,,
ACT,KACT,US-TX,Waco,Waco Regional Airport,0,31.61129951,-97.23049927,516,M,6596,2,12,1708,http://en.wikipedia.org/wiki/Waco_Regional_Airport,,,,
ACV,KACV,US-CA,Arcata/Eureka,California Redwood Coast-Humboldt County Airport,0,40.978101,-124.109,221,M,6000,2,11,1666,http://en.wikipedia.org/wiki/Arcata-Eureka_Airport,,,,
ACX,ZUYI,CN-52,Xingyi,Xingyi Airport,0,25.08638889,104.9594444,4150,M,2800,1,5,3515,http://en.wikipedia.org/wiki/Xingyi_Airport,,,,
ACY,KACY,US-NJ,Atlantic City,Atlantic City International Airport,0,39.45759964,-74.57720184,75,M,10000,2,15,1937,http://en.wikipedia.org/wiki/Atlantic_City_International_Airport,,,,
ADA,LTAF,TR-01,Adana,Adana Airport,0,36.98220062,35.28039932,65,L,9022,1,11,4208,http://en.wikipedia.org/wiki/Adana_%C5%9Eakirpa%C5%9Fa_Airport,,,,
ADE,OYAA,YE-AD,Aden,Aden International Airport,0,12.8295002,45.02880096,7,M,10171,1,12,2611,http://en.wikipedia.org/wiki/Aden_International_Airport,,,,
ADF,LTCP,TR-02,Ad??yaman,Ad??yaman Airport,0,37.73139954,38.46889877,2216,M,8212,1,9,1916,http://en.wikipedia.org/wiki/Ad%C4%B1yaman_Airport,,,,
ADJ,OJAM,JO-AM,Amman,Amman-Marka International Airport,0,31.97270012,35.99160004,2555,M,10745,1,12,2270,http://en.wikipedia.org/wiki/Marka_Airport,,,,
ADK,PADK,US-AK,Adak Island,Adak Airport,0,51.87799835,-176.6459961,18,M,7790,2,11,2312,http://en.wikipedia.org/wiki/Adak_Airport,,,,
ADQ,PADQ,US-AK,Kodiak,Kodiak Airport,0,57.75,-152.4940033,78,M,7542,3,16,1687,http://en.wikipedia.org/wiki/Kodiak_Airport,,,,
ADU,OITL,IR-03,Ardabil,Ardabil Airport,0,38.32569885,48.42440033,4315,M,10823,1,12,2375,http://en.wikipedia.org/wiki/Ardabil_Airport,,,,
ADZ,SKSP,CO-SAP,San Andr??s,Gustavo Rojas Pinilla International Airport,0,12.5836,-81.7112,19,M,7808,1,10,2041,http://en.wikipedia.org/wiki/Gustavo_Rojas_Pinilla_International_Airport,,,,
AEB,CN-0082,CN-45,Baise,Baise Youjiang Airport,0,23.72060013,106.9599991,490,M,8202,1,9,2145,http://en.wikipedia.org/wiki/Baise_Youjiang_Airport,,,,
AEH,FTTC,TD-OD,,Abeche Airport,0,13.84700012,20.84429932,1788,M,9186,1,10,2291,http://en.wikipedia.org/wiki/Ab%C3%A9ch%C3%A9_Airport,,,,
AEP,SABE,AR-C,Buenos Aires,Jorge Newbery Airpark,0,-34.5592,-58.4156,18,M,6890,1,9,5484,http://en.wikipedia.org/wiki/Aeroparque_Jorge_Newbery,,,,
AES,ENAL,NO-15,?àlesund,?àlesund Airport,0,62.5625,6.119699955,69,M,7592,1,9,2062,http://en.wikipedia.org/wiki/%C3%85lesund_Airport%2C_Vigra,,,,
AEX,KAEX,US-LA,Alexandria,Alexandria International Airport,0,31.32740021,-92.54979706,89,M,9352,2,14,2291,http://en.wikipedia.org/wiki/Alexandria_International_Airport,,,,
AEY,BIAR,IS-6,Akureyri,Akureyri Airport,0,65.66000366,-18.0727005,6,M,6365,1,8,2020,http://en.wikipedia.org/wiki/Akureyri_Airport,,,,
AFA,SAMR,AR-M,San Rafael,Suboficial Ay Santiago Germano Airport,0,-34.588299,-68.4039,2470,M,6923,1,8,2395,https://en.wikipedia.org/wiki/San_Rafael_Airport_(Argentina),,,,
AFL,SBAT,BR-MT,Alta Floresta,Piloto Osvaldo Marques Dias Airport,0,-9.866389275,-56.10499954,948,M,8202,1,9,1791,https://en.wikipedia.org/wiki/Alta_Floresta_Airport,,,,
AFZ,OIMS,IR-30,Sabzevar,Sabzevar National Airport,0,36.16809845,57.59519958,3010,M,10428,1,11,2291,http://en.wikipedia.org/wiki/Sabzevar_Airport,,,,
AGA,GMAD,MA-AGD,Agadir,Al Massira Airport,0,30.32500076,-9.413069725,250,M,10499,1,11,3033,http://en.wikipedia.org/wiki/Al_Massira_Airport,,,,
AGB,EDMA,DE-BY,Augsburg,Augsburg Airport,0,48.425278,10.931667,1516,M,5230,2,10,1729,https://en.wikipedia.org/wiki/Augsburg_Airport,,,,
AGF,LFBA,FR-B,Agen/La Garenne,Agen-La Garenne Airport,0,44.17470169,0.590556026,204,M,7103,1,9,2104,http://en.wikipedia.org/wiki/Agen_-_La_Garenne_Aerodrome,,,,
AGH,ESTA,SE-M,?ängelholm,?ängelholm-Helsingborg Airport,0,56.29610062,12.84710026,68,M,6381,2,10,2125,http://en.wikipedia.org/wiki/%C3%84ngelholm-Helsingborg_Airport,,,,
AGT,SGES,PY-10,Ciudad del Este,Guarani International Airport,0,-25.454516,-54.842682,846,M,11154,1,12,2208,http://en.wikipedia.org/wiki/Guarani_International_Airport,,,,
AGU,MMAS,MX-AGU,Aguascalientes,Jes??s Ter?ín Paredo International Airport,0,21.705601,-102.318001,6112,M,9843,2,13,2208,http://en.wikipedia.org/wiki/Lic._Jes%C3%BAs_Ter%C3%A1n_Peredo_International_Airport,,,,
AHB,OEAB,SA-14,Abha,Abha Regional Airport,0,18.24040031,42.65660095,6858,M,10991,1,12,2125,http://en.wikipedia.org/wiki/Abha_Regional_Airport,,,,
AHE,NTHE,PF-U-A,Ahe Atoll,Ahe Airport,0,-14.42809963,-146.2570038,11,M,4068,1,6,1812,http://en.wikipedia.org/wiki/Ahe_Airport,,,,
AHN,KAHN,US-GA,Athens,Athens Ben Epps Airport,0,33.94860077,-83.32630157,808,M,5522,2,11,1791,http://en.wikipedia.org/wiki/Athens-Ben_Epps_Airport,,,,
AHO,LIEA,IT-88,Alghero,Alghero-Fertilia Airport,0,40.632099,8.29077,87,M,9843,1,11,2841,http://en.wikipedia.org/wiki/Alghero-Fertilia_Airport,,,,
AHU,GMTA,MA-HOC,Al Hoceima,Cherif Al Idrissi Airport,0,35.17710114,-3.839519978,95,M,8202,1,9,2145,http://en.wikipedia.org/wiki/Cherif_Al_Idrissi_Airport,,,,
AJA,LFKJ,FR-H,Ajaccio/Napol??on Bonaparte,Ajaccio-Napol??on Bonaparte Airport,0,41.92359924,8.802920341,18,M,7897,1,10,4590,http://en.wikipedia.org/wiki/Ajaccio_-_Campo_dell'Oro_Airport,,,,
AJF,OESK,SA-12,Al-Jawf,Al-Jawf Domestic Airport,0,29.78510094,40.09999847,2261,M,12011,1,13,1666,http://en.wikipedia.org/wiki/Al-Jawf_Domestic_Airport,,,,
AJI,LTCO,TR-04,,A?r?? Airport,0,39.65454102,43.02597809,5462,M,6562,1,8,1750,http://en.wikipedia.org/wiki/A%C4%9Fr%C4%B1_Airport,,,,
AJN,FMCV,KM-A,Ouani,Ouani Airport,0,-12.13169956,44.43030167,62,M,4429,1,6,1958,http://en.wikipedia.org/wiki/Ouani_Airport,,,,
AJR,ESNX,SE-BD,Arvidsjaur,Arvidsjaur Airport,0,65.59030151,19.28190041,1245,M,8201,1,9,1687,http://en.wikipedia.org/wiki/Arvidsjaur_Airport,,,,
AJU,SBAR,BR-SE,Aracaju,Santa Maria Airport,0,-10.98400021,-37.07030106,23,M,7218,1,8,1833,0,,,,
AJY,DRZA,NE-1,Agadez,Mano Dayak International Airport,0,16.9659996,8.000109673,1657,M,9843,1,10,2291,http://en.wikipedia.org/wiki/Mano_Dayak_International_Airport,,,,
AKA,ZLAK,CN-61,Ankang,Ankang Wulipu Airport,0,32.708099,108.931,860,M,1600,1,5,3352,https://en.wikipedia.org/wiki/Ankang_Wulipu_Airport,,,,
AKF,HLKF,LY-KF,Kufra,Kufra Airport,0,24.17869949,23.31399918,1367,M,12007,2,15,2333,http://en.wikipedia.org/wiki/Kufra_Airport,,,,
AKJ,RJEC,JP-01,Asahikawa / Hokkaid?ì,Asahikawa Airport,0,43.67079926,142.4470062,721,M,8200,1,9,1958,http://en.wikipedia.org/wiki/Asahikawa_Airport,,,,
AKN,PAKN,US-AK,King Salmon,King Salmon Airport,0,58.67679977,-156.6490021,73,M,8901,3,17,2104,http://en.wikipedia.org/wiki/King_Salmon_Airport,,,,
AKR,DNAK,NG-ON,Akure,Akure Airport,0,7.246739864,5.301010132,1100,M,9195,1,10,2395,http://en.wikipedia.org/wiki/Akure_Airport,,,,
AKT,LCRA,GB-U-A,Akrotiri,RAF Akrotiri,0,34.590401,32.9879,76,L,9002,1,11,4166,http://en.wikipedia.org/wiki/Akrotiri,,,,
AKU,ZWAK,CN-65,Aksu,Aksu Airport,0,41.262501,80.291702,3816,M,3100,1,5,7393,http://en.wikipedia.org/wiki/Aksu_Airport,,,,
AKV,CYKO,CA-QC,Akulivik,Akulivik Airport,0,60.8185997,-78.14859772,75,M,3510,1,6,2229,http://en.wikipedia.org/wiki/Akulivik_Airport,,,,
ALB,KALB,US-NY,Albany,Albany International Airport,0,42.74829865,-73.80169678,285,M,7200,2,13,3132,http://en.wikipedia.org/wiki/Albany_International_Airport,,,,
ALC,LEAL,ES-V,Alicante,Alicante International Airport,0,38.28219986,-0.558156013,142,L,9842,1,11,27802,http://en.wikipedia.org/wiki/Alicante_Airport,,,,
ALF,ENAT,NO-20,Alta,Alta Airport,0,69.97609711,23.37170029,9,M,7165,1,8,1916,http://en.wikipedia.org/wiki/Alta_Airport,,,,
ALH,YABA,AU-WA,Albany,Albany Airport,0,-34.94329834,117.8089981,233,M,1800,2,5,1688,http://en.wikipedia.org/wiki/Albany_Airport_(Australia),,,,
ALL,LIMG,IT-42,Albenga (SV),Villanova D'Albenga International Airport,0,44.050598,8.12743,148,M,4688,1,6,2166,http://en.wikipedia.org/wiki/Villanova_d'Albenga_International_Airport,,,,
ALO,KALO,US-IA,Waterloo,Waterloo Regional Airport,0,42.55709839,-92.40029907,873,M,8400,3,16,1791,http://en.wikipedia.org/wiki/Waterloo_Regional_Airport,,,,
ALP,OSAP,SY-HL,Aleppo,Aleppo International Airport,0,36.18069839,37.22439957,1276,L,9547,1,10,3791,http://en.wikipedia.org/wiki/Aleppo_International_Airport,,,,
ALS,KALS,US-CO,Alamosa,San Luis Valley Regional Bergman Field,0,37.434898,-105.866997,7539,M,8519,2,13,2020,https://en.wikipedia.org/wiki/San_Luis_Valley_Regional_Airport,,,,
ALW,KALW,US-WA,Walla Walla,Walla Walla Regional Airport,0,46.09489822,-118.288002,1194,M,6526,3,14,2187,http://en.wikipedia.org/wiki/Walla_Walla_Regional_Airport,,,,
ALY,HEAX,EG-ALX,Alexandria,El Nouzha Airport,0,31.18390083,29.94890022,-6,M,7221,1,9,2000,http://en.wikipedia.org/wiki/El_Nouzha_Airport,,,,
AMH,HAAM,ET-SN,,Arba Minch Airport,0,6.039390087,37.59049988,3901,M,9170,1,10,1812,http://en.wikipedia.org/wiki/Arba_Minch_Airport,,,,
AMV,ULDD,RU-NEN,Amderma,Amderma Airport,0,69.76329803,61.5564003,13,M,3300,1,5,2499,http://en.wikipedia.org/wiki/Amderma_Airport,,,,
ANE,LFJR,FR-R,Angers/Marc??,Angers-Loire Airport,0,47.56029892,-0.312222004,194,M,5906,1,7,2020,0,,,,
ANF,SCFA,CL-AN,Antofagasta,Cerro Moreno Airport,0,-23.44449997,-70.44509888,455,M,8527,1,10,2125,0,,,,
ANG,LFBU,FR-T,Angoul?¬me/Brie/Champniers,Angoul?¬me-Brie-Champniers Airport,0,45.72919846,0.221456006,436,M,5938,1,7,1750,http://en.wikipedia.org/wiki/Angoul%C3%AAme_-_Brie_-_Champniers_Airport,,,,
ANI,PANI,US-AK,Aniak,Aniak Airport,0,61.58160019,-159.5429993,88,M,6000,2,10,1833,http://en.wikipedia.org/wiki/Aniak_Airport,,,,
ANM,FMNH,MG-D,,Antsirabato Airport,0,-14.99940014,50.32020187,20,M,3914,1,6,2166,http://en.wikipedia.org/wiki/Antsirabato_Airport,,,,
ANN,PANT,US-AK,Annette,Annette Island Airport,0,55.04240036,-131.5720062,119,M,7493,2,11,1875,http://en.wikipedia.org/wiki/Annette_Island_Airport,,,,
ANR,EBAW,BE-VAN,Antwerp,Antwerp International Airport (Deurne),0,51.18939972,4.460279942,39,M,4954,1,7,1687,http://en.wikipedia.org/wiki/Antwerp_International_Airport,,,,
ANV,PANV,US-AK,Anvik,Anvik Airport,0,62.646702,-160.190994,291,M,2960,1,5,2291,https://en.wikipedia.org/wiki/Anvik_Airport,,,,
ANX,ENAN,NO-18,Andenes,And??ya Airport,0,69.29250336,16.14419937,43,M,8097,2,12,2270,http://en.wikipedia.org/wiki/And%C3%B8ya_Airport%2C_Andenes,,,,
AOC,EDAC,DE-TH,Altenburg,Altenburg-Nobitz Airport,0,50.98194504,12.50638866,640,M,7333,1,9,2187,http://en.wikipedia.org/wiki/Altenburg-Nobitz_Airport,,,,
AOE,LTBY,TR-26,Eski?ehir,Anadolu Airport,0,39.809898,30.5194,2588,M,8261,1,9,1687,http://en.wikipedia.org/wiki/Anadolu_Airport,,,,
AOG,ZYAS,CN-21,Anshan,Anshan Air Base,0,41.105301,122.853996,0,M,2800,1,5,6841,https://en.wikipedia.org/wiki/Anshan_Teng%27ao_Airport,,,,
AOI,LIPY,IT-57,Ancona,Ancona Falconara Airport,0,43.616299,13.3623,49,M,9718,1,11,1958,http://en.wikipedia.org/wiki/Ancona_Falconara_Airport,,,,
AOJ,RJSA,JP-02,Aomori,Aomori Airport,0,40.73469925,140.6909943,664,M,9846,1,11,2312,http://en.wikipedia.org/wiki/Aomori_Airport,,,,
AOK,LGKP,GR-81,Karpathos Island,Karpathos Airport,0,35.42139816,27.14599991,66,M,7871,1,9,2354,http://en.wikipedia.org/wiki/Karpathos_Island_National_Airport,,,,
AOO,KAOO,US-PA,Altoona,Altoona Blair County Airport,0,40.29639816,-78.31999969,1503,M,5466,2,11,2270,http://en.wikipedia.org/wiki/Altoona-Blair_County_Airport,,,,
AOT,LIMW,IT-23,Aosta,Aosta Airport,0,45.738499,7.36872,1791,M,4088,1,6,1666,http://en.wikipedia.org/wiki/Aosta_Airport,,,,
APL,FQNP,MZ-N,Nampula,Nampula Airport,0,-15.10560036,39.28179932,1444,M,6562,2,10,2020,http://en.wikipedia.org/wiki/Nampula_Airport,,,,
APN,KAPN,US-MI,Alpena,Alpena County Regional Airport,0,45.0780983,-83.56030273,690,M,9001,2,14,2229,http://en.wikipedia.org/wiki/Alpena_County_Regional_Airport,,,,
APO,SKLC,CO-ANT,Carepa,Antonio Roldan Betancourt Airport,0,7.81196,-76.7164,46,M,7153,1,8,1791,http://en.wikipedia.org/wiki/Antonio_Rold%C3%A1n_Betancourt_Airport,,,,
APW,NSFA,WS-AA,Apia,Faleolo International Airport,0,-13.82999992,-172.0079956,58,M,9843,1,12,2104,http://en.wikipedia.org/wiki/Faleolo_International_Airport,,,,
AQA,SBAQ,BR-SP,Araraquara,Araraquara Airport,0,-21.81200027,-48.13299942,2334,M,5907,1,7,1687,http://en.wikipedia.org/wiki/Araraquara_Airport,,,,
AQG,ZSAQ,CN-34,Anqing,Anqing Tianzhushan Airport,0,30.582199,117.050003,0,M,2800,1,5,7096,https://en.wikipedia.org/wiki/Anqing_Tianzhushan_Airport,,,,
AQI,OEPA,SA-04,Qaisumah,Al Qaisumah/Hafr Al Batin Airport,0,28.335199,46.125099,1174,M,9843,1,11,2041,https://en.wikipedia.org/wiki/Al_Qaisumah/Hafr_Al_Batin_Airport,,,,
AQJ,OJAQ,JO-AQ,Aqaba,Aqaba King Hussein International Airport,0,29.61160088,35.01810074,175,M,9855,1,11,1833,http://en.wikipedia.org/wiki/Aqaba_Airport,,,,
ARC,PARC,US-AK,Arctic Village,Arctic Village Airport,0,68.1147,-145.578995,2092,M,4500,1,7,1833,https://en.wikipedia.org/wiki/Arctic_Village_Airport,,,,
ARH,ULAA,RU-ARK,Archangelsk,Talagi Airport,0,64.60030365,40.71670151,62,M,2500,1,5,5535,http://en.wikipedia.org/wiki/Talagi_Airport,,,,
ARI,SCAR,CL-AP,Arica,Chacalluta Airport,0,-18.3484993,-70.33869934,167,M,7119,1,9,1687,0,,,,
ARK,HTAR,TZ-01,Arusha,Arusha Airport,0,-3.367789984,36.63330078,4550,M,5377,1,7,1854,http://en.wikipedia.org/wiki/Arusha_Airport,,,,
ARM,YARM,AU-NSW,Armidale,Armidale Airport,0,-30.52809906,151.6170044,3556,M,1738,2,5,5426,http://en.wikipedia.org/wiki/Armidale_Airport,,,,
ART,KART,US-NY,Watertown,Watertown International Airport,0,43.9919014,-76.021698,325,M,5000,2,10,2187,http://en.wikipedia.org/wiki/Watertown_International_Airport,,,,
ARU,SBAU,BR-SP,Ara?ºatuba,Ara?ºatuba Airport,0,-21.1413002,-50.42470169,1361,M,6955,1,8,1875,http://en.wikipedia.org/wiki/Ara%C3%A7atuba_Airport,,,,
ARW,LRAR,RO-AR,Arad,Arad International Airport,0,46.17660141,21.26199913,352,M,6562,1,8,2208,http://en.wikipedia.org/wiki/Arad_International_Airport,,,,
ASA,HHSB,ER-DK,Asab,Assab International Airport,0,13.07180023,42.64500046,46,M,11531,1,12,1937,http://en.wikipedia.org/wiki/Asseb_International_Airport,,,,
ASE,KASE,US-CO,Aspen,Aspen-Pitkin Co/Sardy Field,0,39.22320175,-106.8690033,7820,M,7006,1,10,2166,http://en.wikipedia.org/wiki/Aspen%E2%80%93Pitkin_County_Airport,,,,
ASF,URWA,RU-AST,Astrakhan,Astrakhan Airport,0,46.28329849,48.00630188,-65,M,2500,2,5,2473,http://en.wikipedia.org/wiki/Narimanovo_Airport,,,,
ASJ,RJKA,JP-46,Amami,Amami Airport,0,28.43059921,129.7129974,27,M,6560,1,8,2166,http://en.wikipedia.org/wiki/Amami_Airport,,,,
ASM,HHAS,ER-SK,Asmara,Asmara International Airport,0,15.29189968,38.91070175,7661,M,9842,2,13,1666,http://en.wikipedia.org/wiki/Asmara_International_Airport,,,,
ASO,HASO,ET-BE,Asosa,Asosa Airport,0,10.01850033,34.5862999,5100,M,8218,1,9,1666,http://en.wikipedia.org/wiki/Asosa_Airport,,,,
ASP,YBAS,AU-NT,Alice Springs,Alice Springs Airport,0,-23.80669975,133.9019928,1789,M,2438,2,5,3613,http://en.wikipedia.org/wiki/Alice_Springs_Airport,,,,
ASR,LTAU,TR-38,Kayseri,Kayseri Erkilet Airport,0,38.770401,35.49539948,3463,M,9841,1,11,2187,http://en.wikipedia.org/wiki/Erkilet_Airport,,,,
ASU,SGAS,PY-11,Asunci??n,Silvio Pettirossi International Airport,0,-25.23999977,-57.52000046,292,M,10997,1,13,1854,http://en.wikipedia.org/wiki/Silvio_Pettirossi_International_Airport,,,,
ASV,HKAM,KE-700,Amboseli National Park,Amboseli Airport,0,-2.645050049,37.25310135,3755,M,3284,1,5,2020,http://en.wikipedia.org/wiki/Amboseli_Airport,,,,
ASW,HESN,EG-ASN,Aswan,Aswan International Airport,0,23.96439934,32.81999969,662,M,11161,1,12,2104,http://en.wikipedia.org/wiki/Aswan_International_Airport,,,,
ATC,MYCA,BS-CI,Arthur's Town,Arthur's Town Airport,0,24.6294,-75.673797,18,M,7015,2,10,1833,http://en.wikipedia.org/wiki/Arthur's_Town_Airport,,,,
ATM,SBHT,BR-PA,Altamira,Altamira Airport,0,-3.253910065,-52.25400162,369,M,6572,1,8,2270,https://en.wikipedia.org/wiki/Altamira_Airport,,,,
ATY,KATY,US-SD,Watertown,Watertown Regional Airport,0,44.91400146,-97.15470123,1749,M,6900,2,11,1687,http://en.wikipedia.org/wiki/Watertown_Regional_Airport,,,,
ATZ,HEAT,EG-WAD,Assiut,Assiut International Airport,0,27.04649925,31.01199913,772,M,9905,1,11,1875,http://en.wikipedia.org/wiki/Assiut_Airport,,,,
AUG,KAUG,US-ME,Augusta,Augusta State Airport,0,44.3205986,-69.79730225,352,M,5001,2,10,1812,http://en.wikipedia.org/wiki/Augusta_State_Airport,,,,
AUQ,NTMN,PF-U-A,Hiva Oa Island,Hiva Oa-Atuona Airport,0,-9.768790245,-139.0110016,1481,M,3986,1,6,1875,http://en.wikipedia.org/wiki/Atuona_Airport,,,,
AUR,LFLW,FR-C,Aurillac,Aurillac Airport,0,44.89139938,2.421940088,2096,M,5577,1,7,1958,http://en.wikipedia.org/wiki/Aurillac_Airport,,,,
AVI,MUCA,CU-08,Ciego de Avila,Maximo Gomez Airport,0,22.02709961,-78.78959656,335,M,11588,1,12,2166,http://en.wikipedia.org/wiki/M%C3%A1ximo_G%C3%B3mez_Airport,,,,
AVL,KAVL,US-NC,Asheville,Asheville Regional Airport,0,35.43619919,-82.54180145,2165,L,8001,1,10,4291,http://en.wikipedia.org/wiki/Asheville_Regional_Airport,,,,
AVN,LFMV,FR-U,Avignon/Caumont,Avignon-Caumont Airport,0,43.90729904,4.901830196,124,M,6168,1,8,1750,http://en.wikipedia.org/wiki/Avignon_-_Caumont_Airport,,,,
AVP,KAVP,US-PA,Wilkes-Barre/Scranton,Wilkes Barre Scranton International Airport,0,41.33850098,-75.7233963,962,M,7501,2,12,1750,http://en.wikipedia.org/wiki/Wilkes-Barre/Scranton_International_Airport,,,,
AVV,YMAV,AU-VIC,Melbourne,Avalon Airport,0,-38.039398,144.468994,35,M,3048,1,5,5224,http://en.wikipedia.org/wiki/Avalon_Airport,,,,
AWZ,OIAW,IR-10,Ahwaz,Ahwaz Airport,0,31.33740044,48.76200104,66,M,11149,1,12,2325,http://en.wikipedia.org/wiki/Ahvaz_Airport,,,,
AXD,LGAL,GR-71,Alexandroupolis,Dimokritos Airport,0,40.85589981,25.95630074,24,M,8471,1,10,1687,http://en.wikipedia.org/wiki/Alexandroupolis_International_Airport,,,,
AXF,ZBAL,CN-15,Bayanhot,Alxa Left Banner Bayanhot Airport,0,38.74831,105.58858,4560,M,3100,1,5,6276,http://en.wikipedia.org/wiki/Alxa_Left_Banner_Bayanhot_Airport,,,,
AXM,SKAR,CO-QUI,Armenia,El Eden Airport,0,4.45278,-75.7664,3990,M,7045,1,9,1812,http://en.wikipedia.org/wiki/El_Ed%C3%A9n_Airport,,,,
AXP,MYAP,BS-AC,Spring Point,Spring Point Airport,0,22.44179916,-73.97090149,11,M,5000,1,6,1750,0,,,,
AXR,NTGU,PF-U-A,,Arutua Airport,0,-15.2482996,-146.6170044,9,M,4268,1,6,1666,http://en.wikipedia.org/wiki/Arutua_Airport,,,,
AXT,RJSK,JP-05,Akita,Akita Airport,0,39.61560059,140.2189941,313,M,8200,1,9,1958,http://en.wikipedia.org/wiki/Akita_Airport,,,,
AXU,HAAX,ET-TI,,Axum Airport,0,14.14680004,38.77280045,6959,M,7874,1,9,1916,http://en.wikipedia.org/wiki/Axum_Airport,,,,
AYQ,YAYE,AU-NT,Ayers Rock,Ayers Rock Connellan Airport,0,-25.1861,130.975998,1626,M,2599,1,5,6683,http://en.wikipedia.org/wiki/Ayers_Rock_Airport,,,,
AZD,OIYY,IR-25,Yazd,Shahid Sadooghi Airport,0,31.9048996,54.2765007,4054,M,13446,1,14,1770,http://en.wikipedia.org/wiki/Shahid_Sadooghi_Airport,,,,
AZO,KAZO,US-MI,Kalamazoo,Kalamazoo Battle Creek International Airport,0,42.23490143,-85.55210114,874,M,6500,3,14,2145,http://en.wikipedia.org/wiki/Kalamazoo-Battle_Creek_International_Airport,,,,
AZR,DAUA,DZ-01,,Touat Cheikh Sidi Mohamed Belkebir Airport,0,27.83760071,-0.186414003,919,M,9843,1,11,1854,http://en.wikipedia.org/wiki/Touat_Cheikh_Sidi_Mohamed_Belkebir_Airport,,,,
AZS,MDCY,DO-20,Samana,Saman?í El Catey International Airport,0,19.2670002,-69.74199677,30,M,9843,1,10,2125,http://en.wikipedia.org/wiki/Saman%C3%A1_El_Catey_International_Airport,,,,
BAG,RPUB,PH-BEN,Baguio City,Loakan Airport,0,16.37509918,120.6200027,4251,M,5912,1,7,2229,http://en.wikipedia.org/wiki/Loakan_Airport,,,,
BAL,LTCJ,TR-72,Batman,Batman Airport,0,37.92900085,41.11660004,1822,M,10000,1,11,1666,http://en.wikipedia.org/wiki/Batman_Airport,,,,
BAQ,SKBQ,CO-ATL,Barranquilla,Ernesto Cortissoz International Airport,0,10.8896,-74.7808,98,M,9842,1,11,2062,http://en.wikipedia.org/wiki/Ernesto_Cortissoz_International_Airport,,,,
BAR,ZJQH,CN-46,Qionghai,Qionghai Bo'ao Airport,0,19.13824,110.454775,30,M,3200,1,5,3769,https://en.wikipedia.org/wiki/Qionghai_Bo%27ao_Airport,,,,
BAU,SBBU,BR-SP,Bauru,Bauru Airport,0,-22.34499931,-49.05379868,2025,M,4925,1,7,2062,http://en.wikipedia.org/wiki/Bauru_Airport,,,,
BAV,ZBOW,CN-15,Baotou,Baotou Airport,0,40.56000137,109.9970016,3321,M,3300,1,5,2559,http://en.wikipedia.org/wiki/Baotou_Airport,,,,
BAX,UNBB,RU-ALT,Barnaul,Barnaul Airport,0,53.36380005,83.53849792,837,M,2850,1,5,4141,http://en.wikipedia.org/wiki/Barnaul_Airport,,,,
BAY,LRBM,RO-MM,Baia Mare,Tautii Magheraus Airport,0,47.65840149,23.46999931,605,M,5905,1,7,2354,http://en.wikipedia.org/wiki/Baia_Mare_Airport,,,,
BBA,SCBA,CL-AI,Balmaceda,Balmaceda Airport,0,-45.91609955,-71.6894989,1722,M,8205,1,10,2354,0,,,,
BBK,FBKE,BW-NW,Kasane,Kasane Airport,0,-17.83289909,25.16239929,3289,M,6562,1,8,2312,http://en.wikipedia.org/wiki/Kasane_Airport,,,,
BBO,HCMI,SO-WO,Berbera,Berbera Airport,0,10.38920021,44.94110107,30,M,13582,1,14,2020,http://en.wikipedia.org/wiki/Berbera_Airport,,,,
BBU,LRBS,RO-B,Bucharest,B?âneasa International Airport,0,44.50320053,26.10210037,297,M,10499,1,12,1937,http://en.wikipedia.org/wiki/Aurel_Vlaicu_International_Airport,,,,
BCA,MUBA,CU-14,Baracoa,Gustavo Rizo Airport,0,20.36529922,-74.5062027,26,M,6070,1,8,1916,http://en.wikipedia.org/wiki/Gustavo_Rizo_Airport,,,,
BCD,RPVB,PH-NEC,Bacolod City,Bacolod-Silay Airport,0,10.7764,123.014999,82,M,6562,1,8,2166,https://en.wikipedia.org/wiki/Bacolod%E2%80%93Silay_Airport,,,,
BCI,YBAR,AU-QLD,Barcaldine,Barcaldine Airport,0,-23.56529999,145.3070068,878,M,1704,2,5,4447,http://en.wikipedia.org/wiki/Barcaldine_Airport,,,,
BCL,MRBC,CR-L,Pococi,Barra del Colorado Airport,0,10.76869965,-83.58560181,3,M,3281,1,5,1937,http://en.wikipedia.org/wiki/Barra_del_Colorado_Airport,,,,
BCM,LRBC,RO-BC,Bac?âu,Bac?âu Airport,0,46.52190018,26.9102993,607,M,8203,1,10,1812,http://en.wikipedia.org/wiki/Bac%C4%83u_International_Airport,,,,
BCU,DNBC,NG-BA,Bauchi,Sir Abubakar Tafawa Balewa International Airport,0,10.482833,9.744,1965,M,11154,1,12,2187,https://en.wikipedia.org/wiki/Bauchi_State_Airport,,,,
BDH,OIBL,IR-23,Bandar Lengeh,Bandar Lengeh Airport,0,26.53199959,54.82479858,67,M,8203,1,9,2291,http://en.wikipedia.org/wiki/Bandar_Lengeh_Airport,,,,
BDR,KBDR,US-CT,Bridgeport,Igor I Sikorsky Memorial Airport,0,41.16350174,-73.12619781,9,M,4761,3,13,1729,http://en.wikipedia.org/wiki/Sikorsky_Memorial_Airport,,,,
BDS,LIBR,IT-75,Brindisi,Brindisi ?Çô Salento Airport,0,40.6576,17.947001,47,M,10000,2,14,2589,http://en.wikipedia.org/wiki/Brindisi_%E2%80%93_Salento_Airport,,,,
BDT,FZFD,CD-EQ,,Gbadolite Airport,0,4.253210068,20.97529984,1509,M,10499,1,11,2062,http://en.wikipedia.org/wiki/Gbadolite_Airport,,,,
BDU,ENDU,NO-19,M?Ñlselv,Bardufoss Airport,0,69.05580139,18.54039955,252,M,8015,1,9,1875,http://en.wikipedia.org/wiki/Bardufoss_Airport,,,,
BEB,EGPL,GB-SCT,Balivanich,Benbecula Airport,0,57.48109818,-7.362780094,19,M,6024,2,10,1666,http://en.wikipedia.org/wiki/Benbecula_Airport,,,,
BEF,MNBL,NI-AS,Bluefileds,Bluefields Airport,0,11.99100018,-83.77410126,20,M,6625,1,8,1729,http://en.wikipedia.org/wiki/Bluefields_Airport,,,,
BEG,LYBE,RS-00,Belgrade,Belgrade Nikola Tesla Airport,0,44.81840134,20.3090992,335,L,11155,1,12,18454,http://en.wikipedia.org/wiki/Belgrade_Nikola_Tesla_Airport,,,,
BEN,HLLB,LY-BA,Benghazi,Benina International Airport,0,32.09680176,20.26950073,433,M,11732,2,16,2447,http://en.wikipedia.org/wiki/Benina_International_Airport,,,,
BES,LFRB,FR-E,Brest/Guipavas,Brest Bretagne Airport,0,48.44789886,-4.418540001,325,M,10171,2,14,1916,http://en.wikipedia.org/wiki/Brest_Bretagne_Airport,,,,
BET,PABE,US-AK,Bethel,Bethel Airport,0,60.77980042,-161.8379974,126,M,6400,3,14,3020,http://en.wikipedia.org/wiki/Bethel_Airport,,,,
BEW,FQBR,MZ-S,Beira,Beira Airport,0,-19.79640007,34.9076004,33,M,7874,3,14,1666,http://en.wikipedia.org/wiki/Beira_Airport,,,,
BFD,KBFD,US-PA,Bradford,Bradford Regional Airport,0,41.80310059,-78.64009857,2143,M,6309,2,11,1958,http://en.wikipedia.org/wiki/Bradford_Regional_Airport,,,,
BFF,KBFF,US-NE,Scottsbluff,Western Neb. Rgnl/William B. Heilig Airport,0,41.87400055,-103.5960007,3967,M,8279,2,12,1812,http://en.wikipedia.org/wiki/Western_Nebraska_Regional_Airport,,,,
BFJ,ZUBJ,CN-52,Bijie,Bijie Feixiong Airport,0,27.267066,105.472097,4751,M,2900,1,5,5485,https://en.wikipedia.org/wiki/Bijie_Feixiong_Airport,,,,
BFN,FABL,ZA-FS,Bloemfontain,Bram Fischer International Airport,0,-29.09269905,26.30240059,4458,M,8396,2,12,1750,http://en.wikipedia.org/wiki/Bloemfontein_Airport,,,,
BGA,SKBG,CO-SAN,Bucaramanga,Palonegro Airport,0,7.1265,-73.1848,3897,M,7381,1,9,1916,http://en.wikipedia.org/wiki/Palo_Negro_International_Airport,,,,
BGC,LPBG,PT-04,Bragan?ºa,Bragan?ºa Airport,0,41.8578,-6.70713,2241,M,5600,1,7,1895,https://en.wikipedia.org/wiki/Bragan%C3%A7a_Airport,,,,
BGF,FEFF,CF-MP,Bangui,Bangui M'Poko International Airport,0,4.398479939,18.51880074,1208,M,8530,1,10,2208,http://en.wikipedia.org/wiki/Bangui_M'Poko_International_Airport,,,,
BGM,KBGM,US-NY,Binghamton,Greater Binghamton/Edwin A Link field,0,42.20869827,-75.97979736,1636,M,7100,2,12,2375,http://en.wikipedia.org/wiki/Greater_Binghamton_Airport,,,,
BGO,ENBR,NO-12,Bergen,Bergen Airport Flesland,0,60.29339981,5.218140125,170,L,9810,1,12,14950,http://en.wikipedia.org/wiki/Bergen_Airport%2C_Flesland,,,,
BGR,KBGR,US-ME,Bangor,Bangor International Airport,0,44.80739975,-68.82810211,192,L,11440,1,14,4083,http://en.wikipedia.org/wiki/Bangor_International_Airport,,,,
BHB,KBHB,US-ME,Bar Harbor,Hancock County-Bar Harbor Airport,0,44.45000076,-68.3615036,83,M,5200,3,12,1937,http://en.wikipedia.org/wiki/Hancock_County-Bar_Harbor_Airport,,,,
BHD,EGAC,GB-NIR,Belfast,George Best Belfast City Airport,0,54.61809921,-5.872499943,15,L,6001,1,8,3631,http://en.wikipedia.org/wiki/George_Best_Belfast_City_Airport,,,,
BHE,NZWB,NZ-MBH,Blenheim,Woodbourne Airport,0,-41.5182991,173.8699951,109,M,4675,3,12,1666,http://en.wikipedia.org/wiki/Woodbourne_Airport,,,,
BHH,OEBH,SA-14,,Bisha Airport,0,19.9843998,42.6208992,3887,M,10007,1,11,1833,http://en.wikipedia.org/wiki/Bisha_Domestic_Airport,,,,
BHI,SAZB,AR-B,Bahia Blanca,Comandante Espora Airport,0,-38.725,-62.1693,246,M,8579,3,15,2166,0,,,,
BHQ,YBHI,AU-NSW,Broken Hill,Broken Hill Airport,0,-32.00139999,141.4720001,958,M,2515,2,5,3700,http://en.wikipedia.org/wiki/Broken_Hill_Airport,,,,
BHS,YBTH,AU-NSW,Bathurst,Bathurst Airport,0,-33.40940094,149.6519928,2435,M,1705,2,5,3292,http://en.wikipedia.org/wiki/Bathurst_Airport_(New_South_Wales),,,,
BHV,OPBW,PK-PB,Bahawalpur,Bahawalpur Airport,0,29.34810066,71.71800232,392,M,9345,1,10,2354,http://en.wikipedia.org/wiki/Bahawalpur_Airport,,,,
BHX,EGBB,GB-ENG,Birmingham,Birmingham International Airport,0,52.45389938,-1.748029947,327,L,10013,1,11,22443,http://en.wikipedia.org/wiki/Birmingham_International_Airport_(United_Kingdom),,,,
BHY,ZGBH,CN-45,Beihai,Beihai Airport,0,21.5394,109.293999,0,M,2900,1,5,3479,https://en.wikipedia.org/wiki/Beihai_Fucheng_Airport,,,,
BIA,LFKB,FR-H,Bastia/Poretta,Bastia-Poretta Airport,0,42.55270004,9.483730316,26,M,8266,1,10,3900,http://en.wikipedia.org/wiki/Bastia_-_Poretta_Airport,,,,
BIM,MYBS,BS-BI,South Bimini,South Bimini Airport,0,25.69989967,-79.26470184,10,M,5409,1,7,2145,http://en.wikipedia.org/wiki/South_Bimini_Airport,,,,
BIO,LEBB,ES-PV,Bilbao,Bilbao Airport,0,43.30110168,-2.910609961,138,M,8530,2,13,6906,http://en.wikipedia.org/wiki/Bilbao_Airport,,,,
BIQ,LFBZ,FR-B,Biarritz/Anglet/Bayonne,Biarritz-Anglet-Bayonne Airport,0,43.4683333,-1.5311111,245,M,7382,1,9,1687,http://en.wikipedia.org/wiki/Biarritz_-_Anglet_-_Bayonne_Airport,,,,
BIS,KBIS,US-ND,Bismarck,Bismarck Municipal Airport,0,46.77270126,-100.7460022,1661,M,8794,2,14,2291,http://en.wikipedia.org/wiki/Bismarck_Municipal_Airport,,,,
BJA,DAAE,DZ-06,B??ja?»a,Soummam Airport,0,36.7120018,5.069920063,20,M,7874,1,9,2000,http://en.wikipedia.org/wiki/Soummam_Airport,,,,
BJB,OIMN,IR-31,Bojnord,Bojnord Airport,0,37.49300003,57.30820084,3499,M,10582,1,11,1708,http://en.wikipedia.org/wiki/Bojnourd_Airport,,,,
BJF,ENBS,NO-20,B?Ñtsfjord,B?Ñtsfjord Airport,0,70.60050201,29.69140053,490,M,3281,1,5,2250,http://en.wikipedia.org/wiki/B%C3%A5tsfjord_Airport,,,,
BJL,GBYD,GM-W,Banjul,Banjul International Airport,0,13.3380003,-16.6522007,95,M,11811,1,13,1750,http://en.wikipedia.org/wiki/Banjul_International_Airport,,,,
BJM,HBBA,BI-BJ,Bujumbura,Bujumbura International Airport,0,-3.324019909,29.31850052,2582,M,11811,2,15,2104,http://en.wikipedia.org/wiki/Bujumbura_International_Airport,,,,
BJR,HABD,ET-AM,Bahir Dar,Bahir Dar Airport,0,11.60809994,37.32160187,5978,M,9842,1,11,1687,http://en.wikipedia.org/wiki/Bahir_Dar_Airport,,,,
BJV,LTFE,TR-48,Bodrum,Milas Bodrum International Airport,0,37.25059891,27.66430092,21,L,9842,1,11,6781,http://en.wikipedia.org/wiki/Milas-Bodrum_Airport,,,,
BJX,MMLO,MX-GUA,Silao,Del Baj?¡o International Airport,0,20.9935,-101.481003,5956,M,11483,1,12,1708,http://en.wikipedia.org/wiki/Del_Baj%C3%ADo_International_Airport,,,,
BJZ,LEBZ,ES-EX,Badajoz,Badajoz Airport,0,38.8913002,-6.82133007,609,M,9350,1,10,2354,http://en.wikipedia.org/wiki/Badajoz_Airport,,,,
BKO,GABS,ML-2,Senou,Senou Airport,0,12.53349972,-7.949940205,1247,M,8879,1,10,2566,http://en.wikipedia.org/wiki/Senou_International_Airport,,,,
BKQ,YBCK,AU-QLD,Blackall,Blackall Airport,0,-24.42779922,145.4290009,928,M,1688,2,5,9458,http://en.wikipedia.org/wiki/Blackall_Airport,,,,
BKW,KBKW,US-WV,Beckley,Raleigh County Memorial Airport,0,37.78730011,-81.12419891,2504,M,6750,2,11,2250,http://en.wikipedia.org/wiki/Beckley_Raleigh_County_Memorial_Airport,,,,
BLE,ESSD,SE-W,,Borlange Airport,0,60.42200089,15.51519966,503,M,7579,1,9,1750,http://en.wikipedia.org/wiki/Borl%C3%A4nge_Airport,,,,
BLF,KBLF,US-WV,Bluefield,Mercer County Airport,0,37.29579926,-81.20770264,2857,M,4742,1,7,2208,http://en.wikipedia.org/wiki/Mercer_County_Airport_(West_Virginia),,,,
BLI,KBLI,US-WA,Bellingham,Bellingham International Airport,0,48.7928009,-122.538002,170,M,6701,1,9,2166,http://en.wikipedia.org/wiki/Bellingham_International_Airport,,,,
BLJ,DABT,DZ-05,Batna,Batna Airport,0,35.7521019,6.308589935,2697,M,9843,1,10,1895,http://en.wikipedia.org/wiki/Batna_Airport,,,,
BLK,EGNH,GB-ENG,Blackpool,Blackpool International Airport,0,53.77170181,-3.028609991,34,M,6132,3,13,2250,http://en.wikipedia.org/wiki/Blackpool_International_Airport,,,,
BLL,EKBI,DK-83,Billund,Billund Airport,0,55.74029922,9.151780128,247,L,10172,1,12,9791,http://en.wikipedia.org/wiki/Billund_Airport,,,,
BLQ,LIPE,IT-45,Bologna,Bologna Guglielmo Marconi Airport,0,44.5354,11.2887,123,L,9186,1,11,15766,http://en.wikipedia.org/wiki/Bologna_Airport,,,,
BLZ,FWCL,MW-BL,Blantyre,Chileka International Airport,0,-15.67910004,34.97399902,2555,M,7628,2,11,1812,http://en.wikipedia.org/wiki/Chileka_International_Airport,,,,
BMA,ESSB,SE-AB,Stockholm,Stockholm-Bromma Airport,0,59.35440063,17.94169998,47,M,5472,1,8,2418,http://en.wikipedia.org/wiki/Stockholm-Bromma_Airport,,,,
BME,YBRM,AU-WA,Broome,Broome International Airport,0,-17.94470024,122.2320023,56,M,2458,1,5,5359,http://en.wikipedia.org/wiki/Broome_International_Airport,,,,
BMY,NWWC,NC-U-A,Waala,?Äle Art - Waala Airport,0,-19.72060013,163.6609955,306,M,1969,1,4,1729,http://en.wikipedia.org/wiki/%C3%8Ele_Art_-_Waala_Airport,,,,
BND,OIKB,IR-23,Bandar Abbas,Bandar Abbas International Airport,0,27.21829987,56.37779999,22,M,12008,2,15,2000,http://en.wikipedia.org/wiki/Bandar_Abbas_International_Airport,,,,
BNI,DNBE,NG-ED,Benin,Benin Airport,0,6.316979885,5.599500179,258,M,7870,1,9,1875,http://en.wikipedia.org/wiki/Benin_Airport,,,,
BNK,YBNA,AU-NSW,Ballina,Ballina Byron Gateway Airport,0,-28.83390045,153.5619965,7,M,1900,1,5,7859,http://en.wikipedia.org/wiki/Ballina_Airport,,,,
BNN,ENBN,NO-18,Br??nn??y,Br??nn??ysund Airport,0,65.46109772,12.21749973,25,M,3937,1,6,2041,http://en.wikipedia.org/wiki/Br%C3%B8nn%C3%B8ysund_Airport%2C_Br%C3%B8nn%C3%B8y,,,,
BNX,LQBK,BA-SRP,Banja Luka,Banja Luka International Airport,0,44.94139862,17.29750061,400,M,8213,1,9,1729,http://en.wikipedia.org/wiki/Banja_Luka_International_Airport,,,,
BOB,NTTB,PF-U-A,Motu Mute,Bora Bora Airport,0,-16.44440079,-151.7510071,10,M,4921,2,9,2041,http://en.wikipedia.org/wiki/Bora_Bora_Airport,,,,
BOC,MPBO,PA-1,Isla Col??n,Bocas Del Toro International Airport,0,9.340849876,-82.25080109,10,M,4921,1,7,2312,0,,,,
BOH,EGHH,GB-ENG,Bournemouth,Bournemouth Airport,0,50.77999878,-1.842499971,38,L,7451,1,9,3666,http://en.wikipedia.org/wiki/Bournemouth_Airport,,,,
BOJ,LBBG,BG-02,Burgas,Burgas Airport,0,42.56959915,27.51519966,135,L,10499,1,11,4083,http://en.wikipedia.org/wiki/Burgas_Airport,,,,
BOO,ENBO,NO-18,Bod??,Bod?? Airport,0,67.26920319,14.36530018,42,L,11136,1,12,3416,http://en.wikipedia.org/wiki/Bod%C3%B8_Airport,,,,
BOY,DFOO,BF-HOU,Bobo Dioulasso,Bobo Dioulasso Airport,0,11.16009998,-4.33096981,1511,M,10826,1,12,2104,http://en.wikipedia.org/wiki/Bobo_Dioulasso_Airport,,,,
BPE,ZBDH,CN-13,Qinhuangdao,Qinhuangdao Beidaihe Airport,0,39.666389,119.058889,46,M,2700,1,5,4768,https://en.wikipedia.org/wiki/Qinhuangdao_Beidaihe_Airport,,,,
BPS,SBPS,BR-BA,Porto Seguro,Porto Seguro Airport,0,-16.43860054,-39.08089828,168,M,6562,1,8,2000,0,,,,
BPT,KBPT,US-TX,Beaumont/Port Arthur,Southeast Texas Regional Airport,0,29.95079994,-94.02069855,15,M,6750,2,12,2229,http://en.wikipedia.org/wiki/Southeast_Texas_Regional_Airport,,,,
BPX,ZUBD,CN-54,Bangda,Qamdo Bangda Airport,0,30.55360031,97.10829926,14219,M,5500,1,5,2638,http://en.wikipedia.org/wiki/Bangda_Airport,,,,
BPY,FMNQ,MG-M,,Besalampy Airport,0,-16.7445303,44.48248386,125,M,4046,1,5,2000,http://en.wikipedia.org/wiki/Besalampy_Airport,,,,
BQA,RPUR,PH-AUR,Baler,Dr.Juan C. Angara Airport,0,15.729309,121.500034,108,M,3937,1,5,1875,0,,,,
BQG,UHNB,RU-KHA,Bogorodskoye,Bogorodskoye Airport,0,52.38,140.448,0,M,3000,1,5,8963,0,,,,
BQJ,UEBB,RU-SA,Batagay,Batagay Airport,0,67.64800262,134.6950073,696,M,2500,1,5,9963,https://en.wikipedia.org/wiki/Batagay_Airport,,,,
BQK,KBQK,US-GA,Brunswick,Brunswick Golden Isles Airport,0,31.25880051,-81.46649933,26,M,8001,1,10,2166,http://en.wikipedia.org/wiki/Brunswick_Golden_Isles_Airport,,,,
BQS,UHBB,RU-AMU,Blagoveschensk,Ignatyevo Airport,0,50.42539978,127.4120026,638,M,2821,1,5,3327,http://en.wikipedia.org/wiki/Ignatyevo_Airport,,,,
BRC,SAZS,AR-R,San Carlos de Bariloche,San Carlos De Bariloche Airport,0,-41.15119934,-71.15750122,2774,M,7703,1,9,1750,0,,,,
BRD,KBRD,US-MN,Brainerd,Brainerd Lakes Regional Airport,0,46.39830017,-94.13809967,1232,M,6500,4,16,1812,http://en.wikipedia.org/wiki/Brainerd_Lakes_Regional_Airport,,,,
BRK,YBKE,AU-NSW,,Bourke Airport,0,-30.03919983,145.9519958,352,M,1830,2,5,4405,http://en.wikipedia.org/wiki/Bourke_Airport,,,,
BRL,KBRL,US-IA,Burlington,Southeast Iowa Regional Airport,0,40.78319931,-91.12550354,698,M,6702,2,11,2104,http://en.wikipedia.org/wiki/Southeast_Iowa_Regional_Airport,,,,
BRN,LSZB,CH-BE,Bern,Bern Belp Airport,0,46.91410065,7.497149944,1674,M,5676,3,13,2229,http://en.wikipedia.org/wiki/Berne_Airport,,,,
BRO,KBRO,US-TX,Brownsville,Brownsville South Padre Island International Airport,0,25.90679932,-97.42590332,22,M,7400,3,15,2125,http://en.wikipedia.org/wiki/Brownsville/South_Padre_Island_International_Airport,,,,
BRQ,LKTB,CZ-JM,Brno,Brno-Tu?Öany Airport,0,49.15129852,16.69440079,778,M,8694,1,10,1895,http://en.wikipedia.org/wiki/Brno-Tu%C5%99any_Airport,,,,
BRR,EGPR,GB-SCT,Eoligarry,Barra Airport,0,57.0228,-7.44306,5,M,2776,3,10,1979,http://en.wikipedia.org/wiki/Barra_Airport_(Scotland),,,,
BRS,EGGD,GB-ENG,Bristol,Bristol Airport,0,51.382702,-2.71909,622,L,6598,1,8,19583,http://en.wikipedia.org/wiki/Bristol_International_Airport,,,,
BRW,PABR,US-AK,Utqia?ívik,Wiley Post Will Rogers Memorial Airport,0,71.285402,-156.766008,44,M,6500,1,8,1979,http://en.wikipedia.org/wiki/Wiley_Post-Will_Rogers_Memorial_Airport,,,,
BRX,MDBH,DO-04,Barahona,Maria Montez International Airport,0,18.25149918,-71.12039948,10,M,9843,1,11,2354,http://en.wikipedia.org/wiki/Mar%C3%ADa_Montez_International_Airport,,,,
BSC,SKBS,CO-CHO,Bah?¡a Solano,Jos?? Celestino Mutis Airport,0,6.20292,-77.3947,80,M,3973,2,8,1979,http://en.wikipedia.org/wiki/Jos%C3%A9_Celestino_Mutis_Airport,,,,
BSD,ZPBS,CN-53,,Baoshan Yunduan Airport,0,25.053301,99.168297,5453,M,2500,1,5,3840,http://en.wikipedia.org/wiki/Baoshan_Yunduan_Airport,,,,
BSG,FGBT,GQ-LI,,Bata Airport,0,1.905470014,9.805680275,13,M,10860,2,14,2041,http://en.wikipedia.org/wiki/Bata_Airport,,,,
BSK,DAUB,DZ-07,Biskra,Biskra Airport,0,34.79330063,5.738230228,289,M,9469,1,10,1937,http://en.wikipedia.org/wiki/Biskra_Airport,,,,
BSO,RPUO,PH-BTN,Basco,Basco Airport,0,20.4513,121.980003,291,M,4101,1,6,1895,http://en.wikipedia.org/wiki/Basco_Airport,,,,
BSR,ORMM,IQ-BA,Basrah,Basrah International Airport,0,30.54910088,47.66210175,11,L,13124,1,14,4083,http://en.wikipedia.org/wiki/Basra_International_Airport,,,,
BTK,UIBB,RU-IRK,Bratsk,Bratsk Airport,0,56.37060165,101.697998,1610,M,3160,1,5,1979,http://en.wikipedia.org/wiki/Bratsk_Airport,,,,
BTM,KBTM,US-MT,Butte,Bert Mooney Airport,0,45.95479965,-112.4970016,5550,M,9001,3,16,1875,http://en.wikipedia.org/wiki/Bert_Mooney_Airport,,,,
BTV,KBTV,US-VT,Burlington,Burlington International Airport,0,44.47190094,-73.15329742,335,M,8320,2,14,2166,http://en.wikipedia.org/wiki/Burlington_International_Airport,,,,
BUA,AYBK,PG-NSB,Buka Island,Buka Airport,0,-5.422319889,154.6730042,11,M,5125,1,7,1770,http://en.wikipedia.org/wiki/Buka_Airport,,,,
BUN,SKBU,CO-VAC,Buenaventura,Gerardo Tobar L??pez Airport,0,3.81963,-76.9898,48,M,3945,1,6,2125,http://en.wikipedia.org/wiki/Gerardo_Tobar_L%C3%B3pez_Airport,,,,
BUQ,FVBU,ZW-BU,Bulawayo,Joshua Mqabuko Nkomo International Airport,0,-20.01740074,28.61790085,4359,M,8491,2,12,2291,http://en.wikipedia.org/wiki/Joshua_Mqabuko_Nkomo_International_Airport,,,,
BUR,KBUR,US-CA,Burbank,Bob Hope Airport,0,34.20069885,-118.3590012,778,M,6886,2,12,1854,0,,,,
BUX,FZKA,CD-OR,,Bunia Airport,0,1.565719962,30.2208004,4045,M,6070,1,8,1770,http://en.wikipedia.org/wiki/Bunia_Airport,,,,
BUZ,OIBB,IR-06,Bushehr,Bushehr Airport,0,28.94479942,50.83459854,68,M,14664,2,18,1979,http://en.wikipedia.org/wiki/Bushehr_Airport,,,,
BVA,LFOB,FR-S,Beauvais/Till??,Paris Beauvais Till?? Airport,0,49.45439911,2.112780094,359,M,7972,3,14,7000,http://en.wikipedia.org/wiki/Paris_Beauvais_Till%C3%A9_Airport,,,,
BVB,SBBV,BR-RR,Boa Vista,Atlas Brasil Cantanhede Airport,0,2.841388941,-60.6922226,276,M,8858,1,10,2333,http://en.wikipedia.org/wiki/Boa_Vista_International_Airport,,,,
BVC,GVBA,CV-B,Rabil,Rabil Airport,0,16.1364994,-22.88890076,69,M,6890,1,8,2208,http://en.wikipedia.org/wiki/Rabil_Airport,,,,
BVE,FR-0321,FR-L,,Brive Souillac Airport,0,45.039722,1.485556,1016,M,6890,1,8,2270,http://en.wikipedia.org/wiki/Brive%E2%80%93Souillac_Airport,,,,
BVG,ENBV,NO-20,Berlev?Ñg,Berlev?Ñg Airport,0,70.87139893,29.03420067,42,M,3372,1,5,2083,https://en.wikipedia.org/w/index.php?title=Berlev?Ñg_Airport,,,,
BVH,SBVH,BR-RO,Vilhena,Brigadeiro Camar?úo Airport,0,-12.69439983,-60.09830093,2018,M,8530,1,9,2104,https://en.wikipedia.org/wiki/Vilhena_Airport,,,,
BVI,YBDV,AU-QLD,,Birdsville Airport,0,-25.89749908,139.3480072,159,M,1732,2,5,8219,http://en.wikipedia.org/wiki/Birdsville_Airport,,,,
BVV,UHSB,RU-SAK,Iturup Island,Burevestnik Airport,0,44.91999817,147.621994,79,M,2700,1,5,9655,http://en.wikipedia.org/wiki/Burevestnik_Airport,,,,
BWE,EDVE,DE-NI,Braunschweig,Braunschweig-Wolfsburg Airport,0,52.319199,10.5561,295,M,7546,2,12,2166,https://en.wikipedia.org/wiki/Braunschweig_Airport,,,,
BWK,LDSB,HR-17,Bra?ì Island,Bol Airport,0,43.28570175,16.67970085,1776,M,4724,1,7,1916,http://en.wikipedia.org/wiki/Bol_Airport,,,,
BWO,UWSB,RU-SAR,Balakovo,Balakovo Airport,0,51.85829926,47.74560165,95,M,3500,1,5,4009,http://en.wikipedia.org/wiki/Balakovo_Airport,,,,
BWT,YWYY,AU-TAS,Burnie,Wynyard Airport,0,-40.99890137,145.7310028,62,M,1650,2,5,6399,http://en.wikipedia.org/wiki/Burnie_Airport,,,,
BXR,OIKM,IR-15,,Bam Airport,0,29.08419991,58.45000076,3231,M,11107,1,12,2354,http://en.wikipedia.org/wiki/Bam_Airport,,,,
BXU,RPME,PH-AGN,Butuan City,Bancasi Airport,0,8.9515,125.4788,141,M,6450,1,8,1750,http://en.wikipedia.org/wiki/Bancasi_Airport,,,,
BYK,DIBK,CI-04,,Bouak?? Airport,0,7.738800049,-5.07366991,1230,M,10827,1,12,2333,http://en.wikipedia.org/wiki/Bouak%C3%A9_Airport,,,,
BYM,MUBY,CU-12,Bayamo,Carlos Manuel de Cespedes Airport,0,20.39640045,-76.62139893,203,M,6887,1,8,1687,http://en.wikipedia.org/wiki/Carlos_Manuel_C%C3%A9spedes_Airport,,,,
BZE,MZBZ,BZ-BZ,Belize City,Philip S. W. Goldson International Airport,0,17.53910065,-88.30819702,15,L,7100,1,9,6708,http://en.wikipedia.org/wiki/Philip_S._W._Goldson_International_Airport,,,,
BZG,EPBY,PL-KP,Bydgoszcz,Bydgoszcz Ignacy Jan Paderewski Airport,0,53.09680176,17.97769928,235,M,8202,1,9,1833,http://en.wikipedia.org/wiki/Bydgoszcz_Ignacy_Jan_Paderewski_Airport,,,,
BZI,LTBF,TR-10,,Bal??kesir Merkez Airport,0,39.61930084,27.9260006,340,M,9810,1,11,1958,http://en.wikipedia.org/wiki/Bal%C4%B1kesir_Airport,,,,
BZK,UUBP,RU-BRY,Bryansk,Bryansk Airport,0,53.21419907,34.17639923,663,M,2400,1,5,7013,0,,,,
BZN,KBZN,US-MT,Bozeman,Gallatin Field,0,45.77750015,-111.1529999,4473,M,9003,3,16,2062,http://en.wikipedia.org/wiki/Gallatin_Field_Airport,,,,
BZO,LIPB,IT-32,Bolzano,Bolzano Airport,0,46.460201,11.3264,789,M,4255,2,8,1687,http://en.wikipedia.org/wiki/Bolzano_Airport,,,,
BZR,LFMU,FR-K,B??ziers/Vias,B??ziers-Vias Airport,0,43.32350159,3.353899956,56,M,5971,1,8,2062,http://en.wikipedia.org/wiki/B%C3%A9ziers-Agde-Vias_Airport,,,,
