iata_code,ident,iso_region,municipality,name,is Hub,latitude_deg,longitude_deg,elevation_ft,type,RW Length,# RW,Slots ,Boarding new Passengers
ATL,KATL,US-GA,Atlanta,Hartsfield Jackson Atlanta International Airport,1,33.63669968,-84.42810059,1026,L,11890,5,24,106166
ORD,KORD,US-IL,Chicago,Chicago O'Hare International Airport,1,41.97859955,-87.90480042,672,L,13000,9,35,76392
LHR,EGLL,GB-ENG,London,London Heathrow Airport,1,51.4706,-0.461941,83,L,12799,2,19,69639
CDG,LFPG,FR-J,Paris,Charles de Gaulle International Airport,1,49.01279831,2.549999952,392,L,13829,4,23,56142
FRA,EDDF,DE-HE,Frankfurt am Main,Frankfurt am Main Airport,1,50.033333,8.570556,364,L,13123,4,23,62000
LAX,KLAX,US-CA,Los Angeles,Los Angeles International Airport,1,33.94250107,-118.4079971,125,L,12091,4,22,51542
DFW,KDFW,US-TX,Dallas-Fort Worth,Dallas Fort Worth International Airport,1,32.89680099,-97.03800201,607,L,13401,7,30,48016
JFK,KJFK,US-NY,New York,John F Kennedy International Airport,1,40.63980103,-73.77890015,13,L,14572,4,24,59171
AMS,EHAM,NL-NH,Amsterdam,Amsterdam Airport Schiphol,1,52.30860138,4.76388979,-11,L,12467,6,26,57164
BCN,LEBL,ES-CT,Barcelona,Barcelona International Airport,1,41.29710007,2.078459978,12,L,11654,3,18,40030
ICN,RKSI,KR-28,Seoul,Incheon International Airport,1,37.46910095,126.4509964,23,L,13000,3,20,40523
MUC,EDDM,DE-BY,Munich,Munich Airport,1,48.353802,11.7861,1487,L,13123,2,18,41619
MIA,KMIA,US-FL,Miami,Miami International Airport,1,25.79319954,-80.29060364,8,L,13000,4,22,45123
DEN,KDEN,US-CO,Denver,Denver International Airport,1,39.86169815,-104.6729965,5431,L,16000,6,30,48992
IST,LTBA,TR-34,Istanbul,Atat├╝rk International Airport,1,40.97689819,28.81459999,163,L,9843,3,17,39635
LGW,EGKK,GB-ENG,London,London Gatwick Airport,1,51.14810181,-0.190277994,202,L,10364,2,14,46195
DXB,OMDB,AE-DU,Dubai,Dubai International Airport,1,25.25279999,55.36439896,62,L,13124,2,17,38142
FCO,LIRF,IT-62,Rome,Leonardo da VinciΓÇôFiumicino Airport,1,41.8002778,12.2388889,13,L,12795,4,21,40980
MAD,LEMD,ES-M,Madrid,Adolfo Su├írez MadridΓÇôBarajas Airport,1,40.471926,-3.56264,1998,L,13711,4,24,38892
YYZ,CYYZ,CA-ON,Toronto,Lester B. Pearson International Airport,1,43.67720032,-79.63059998,569,L,11120,5,25,35585
BRU,EBBR,BE-BRU,Brussels,Brussels Airport,1,50.90140152,4.48443985,184,L,11936,3,20,36490
MAN,EGCC,GB-ENG,Manchester,Manchester Airport,1,53.35369873,-2.274950027,257,L,10000,2,14,30847
VIE,LOWW,AT-9,Vienna,Vienna International Airport,1,48.11029816,16.56970024,600,L,11811,2,16,34466
STN,EGSS,GB-ENG,London,London Stansted Airport,0,51.88499832,0.234999999,348,L,10003,1,12,34239
CLT,KCLT,US-NC,Charlotte,Charlotte Douglas International Airport,1,35.2140007,-80.94309998,748,L,10000,4,20,33683
PHL,KPHL,US-PA,Philadelphia,Philadelphia International Airport,1,39.87189865,-75.2410965,36,L,10506,4,20,39221
NRT,RJAA,JP-12,Tokyo,Narita International Airport,1,35.76470184,140.3860016,141,L,13123,2,19,33707
DUS,EDDL,DE-NW,D├╝sseldorf,D├╝sseldorf Airport,1,51.289501,6.76678,147,L,9842,2,15,29517
TFS,GCTS,ES-CN,Tenerife Island,Tenerife South Airport,0,28.04450035,-16.57250023,209,L,10499,1,12,31137
ALC,LEAL,ES-V,Alicante,Alicante International Airport,0,38.28219986,-0.558156013,142,L,9842,1,11,27802
PMI,LEPA,ES-PM,Palma De Mallorca,Palma De Mallorca Airport,1,39.55170059,2.738810062,27,L,10728,2,15,35810
TPE,RCTP,TW-TAO,Taipei,Taiwan Taoyuan International Airport,1,25.0777,121.233002,106,L,12008,2,17,27657
SAW,LTFJ,TR-34,Istanbul,Sabiha G├╢k├ºen International Airport,0,40.89860153,29.30920029,312,L,9843,1,11,32020
EWR,KEWR,US-NJ,Newark,Newark Liberty International Airport,1,40.69250107,-74.16870117,18,L,11000,3,18,30119
PHX,KPHX,US-AZ,Phoenix,Phoenix Sky Harbor International Airport,1,33.43429947,-112.012001,1135,L,11489,3,19,26892
SFO,KSFO,US-CA,San Francisco,San Francisco International Airport,1,37.61899948,-122.375,13,L,11870,4,22,27567
ZRH,LSZH,CH-ZH,Zurich,Z├╝rich Airport,1,47.464699,8.54917,1416,L,12139,3,19,23523
LAS,KLAS,US-NV,Las Vegas,McCarran International Airport,1,36.08010101,-115.1520004,2181,L,14510,4,23,30750
IAH,KIAH,US-TX,Houston,George Bush Intercontinental Houston Airport,1,29.9843998,-95.34140015,97,L,12001,5,25,27192
MEX,MMMX,MX-DIF,Mexico City,Licenciado Benito Juarez International Airport,1,19.4363,-99.072098,7316,L,12966,2,17,23432
AUH,OMAA,AE-AZ,Abu Dhabi,Abu Dhabi International Airport,1,24.43300056,54.65110016,88,L,13452,2,16,24100
STR,EDDS,DE-BW,Stuttgart,Stuttgart Airport,0,48.68989944,9.221960068,1276,L,10974,1,14,29968
MCO,KMCO,US-FL,Orlando,Orlando International Airport,1,28.42939949,-81.30899811,96,L,12005,4,22,31882
BHX,EGBB,GB-ENG,Birmingham,Birmingham International Airport,0,52.45389938,-1.748029947,327,L,10013,1,11,22443
CPH,EKCH,DK-84,Copenhagen,Copenhagen Kastrup Airport,1,55.61790085,12.65600014,17,L,11811,3,21,27261
NBO,HKJK,KE-110,Nairobi,Jomo Kenyatta International Airport,0,-1.319239974,36.92779922,5330,L,13507,1,14,23833
ARN,ESSA,SE-AB,Stockholm,Stockholm-Arlanda Airport,1,59.65190125,17.91860008,137,L,10830,3,18,26592
MSP,KMSP,US-MN,Minneapolis,Minneapolis-St Paul International/Wold-Chamberlain Airport,1,44.88199997,-93.22180176,841,L,11006,4,22,21700
DTW,KDTW,US-MI,Detroit,Detroit Metropolitan Wayne County Airport,1,42.21239853,-83.35340118,645,L,12003,6,27,22114
LIS,LPPT,PT-11,Lisbon,Humberto Delgado Airport (Lisbon Portela Airport),1,38.7813,-9.13592,374,L,12484,2,17,26495
BOS,KBOS,US-MA,Boston,General Edward Lawrence Logan International Airport,1,42.36429977,-71.00520325,20,L,10083,6,25,26247
SAN,KSAN,US-CA,San Diego,San Diego International Airport,0,32.73360062,-117.1900024,17,L,9401,1,12,20825
TXL,EDDT,DE-BE,Berlin,Berlin-Tegel Airport,1,52.5597,13.2877,122,L,9918,2,15,25752
DUB,EIDW,IE-D,Dublin,Dublin Airport,1,53.42129898,-6.270070076,242,L,8652,3,16,28092
AGP,LEMG,ES-AN,M├ílaga,M├ílaga Airport,1,36.67490005,-4.499110222,53,L,10500,2,15,27466
CTA,LICC,IT-82,Catania,Catania-Fontanarossa Airport,0,37.466801,15.0664,39,L,7989,1,10,21562
SEA,KSEA,US-WA,Seattle,Seattle Tacoma International Airport,1,47.44900131,-122.3089981,433,L,11900,3,19,26321
ORY,LFPO,FR-J,Paris,Paris-Orly Airport,1,48.7233333,2.3794444,291,L,11975,3,18,22253
ATH,LGAV,GR-A1,Athens,Eleftherios Venizelos International Airport,1,37.93640137,23.94449997,308,L,13123,2,18,26735
DCA,KDCA,US-DC,Washington,Ronald Reagan Washington National Airport,1,38.8521,-77.037697,15,L,6869,3,14,20766
IAD,KIAD,US-DC,Washington,Washington Dulles International Airport,1,38.94449997,-77.45580292,312,L,11501,4,21,21233
JED,OEJN,SA-02,Jeddah,King Abdulaziz International Airport,1,21.6796,39.156502,48,L,13123,3,20,18707
MNL,RPLL,PH-U-A,Manila,Ninoy Aquino International Airport,1,14.5086,121.019997,75,L,12261,2,17,21138
GRU,SBGR,BR-SP,S├úo Paulo,Guarulhos - Governador Andr├⌐ Franco Montoro International Airport,1,-23.43555641,-46.47305679,2459,L,12139,2,16,19989
MXP,LIMC,IT-25,Milan,Malpensa International Airport,1,45.6306,8.72811,768,L,12861,2,17,18742
DOH,QA-0001,QA-DA,Doha,Hamad International Airport,1,25.273056,51.608056,13,L,15912,2,19,20250
LTN,EGGW,GB-ENG,London,London Luton Airport,0,51.87469864,-0.368333012,526,L,7086,1,9,18900
FLL,KFLL,US-FL,Fort Lauderdale,Fort Lauderdale Hollywood International Airport,1,26.07259941,-80.15270233,9,L,9000,3,16,22364
FAO,LPFR,PT-08,Faro,Faro Airport,0,37.01440048,-7.965909958,24,L,8169,1,10,21420
YUL,CYUL,CA-QC,Montr├⌐al,Montreal / Pierre Elliott Trudeau International Airport,1,45.47060013,-73.74079895,118,L,11000,3,19,23345
OSL,ENGM,NO-02,Oslo,Oslo Gardermoen Airport,1,60.19390106,11.10039997,681,L,11811,2,17,18857
PRG,LKPR,CZ-PR,Prague,V├íclav Havel Airport Prague,1,50.1008,14.26,1247,L,12189,3,19,19928
RIX,EVRA,LV-RIX,Riga,Riga International Airport,0,56.92359924,23.97109985,36,L,10499,1,12,23356
BRS,EGGD,GB-ENG,Bristol,Bristol Airport,0,51.382702,-2.71909,622,L,6598,1,8,19583
OPO,LPPR,PT-13,Porto,Francisco de S├í Carneiro Airport,0,41.24810028,-8.681389809,228,L,11417,1,12,21666
SHJ,OMSJ,AE-SH,Sharjah,Sharjah International Airport,0,25.32859993,55.51720047,111,L,13320,1,14,19804
EMA,EGNX,GB-ENG,Nottingham,East Midlands Airport,0,52.83110046,-1.328060031,306,L,9491,1,11,22760
GVA,LSGG,CH-GE,Geneva,Geneva Cointrin International Airport,1,46.23809814,6.108950138,1411,L,12795,2,17,20157
LCA,LCLK,CY-04,Larnarca,Larnaca International Airport,0,34.87509918,33.62490082,8,L,9776,1,11,22087
HAM,EDDH,DE-HH,Hamburg,Hamburg Airport,1,53.63040161,9.988229752,53,L,12028,2,16,18400
HEL,EFHK,FI-ES,Helsinki,Helsinki Vantaa Airport,1,60.31719971,24.9633007,179,L,11286,3,19,15142
JNB,FAJS,ZA-GT,Johannesburg,OR Tambo International Airport,1,-26.1392,28.246,5558,L,14495,2,19,17035
YVR,CYVR,CA-BC,Vancouver,Vancouver International Airport,1,49.19390106,-123.1839981,14,L,11500,4,21,15423
LGA,KLGA,US-NY,New York,La Guardia Airport,1,40.77719879,-73.87259674,21,L,7000,2,12,21442
CUN,MMUN,MX-ROO,Canc├║n,Canc├║n International Airport,1,21.03650093,-86.87709808,22,L,11483,2,16,16447
HND,RJTT,JP-13,Tokyo,Tokyo Haneda International Airport,1,35.552299,139.779999,35,L,9840,4,22,19625
LPA,GCLP,ES-CN,Gran Canaria Island,Gran Canaria Airport,1,27.93190002,-15.38659954,78,L,10171,2,14,19983
BLQ,LIPE,IT-45,Bologna,Bologna Guglielmo Marconi Airport,0,44.5354,11.2887,123,L,9186,1,11,15766
KIX,RJBB,JP-27,Osaka,Kansai International Airport,1,34.4272995,135.2440033,26,L,13123,2,17,18095
BOG,SKBO,CO-CUN,Bogota,El Dorado International Airport,1,4.70159,-74.1469,8361,L,12467,2,16,19723
CAI,HECA,EG-C,Cairo,Cairo International Airport,1,30.12190056,31.40559959,382,L,13124,3,20,20133
BEG,LYBE,RS-00,Belgrade,Belgrade Nikola Tesla Airport,0,44.81840134,20.3090992,335,L,11155,1,12,18454
FUK,RJFF,JP-40,Fukuoka,Fukuoka Airport,0,33.58589935,130.451004,32,L,9186,1,11,17000
CRL,EBCI,BE-WHT,Brussels,Brussels South Charleroi Airport,0,50.459202,4.45382,614,L,8366,1,10,20125
NCL,EGNT,GB-ENG,Newcastle,Newcastle Airport,0,55.03749847,-1.691669941,266,L,7642,1,10,18550
NGO,RJGG,JP-23,Tokoname,Chubu Centrair International Airport,0,34.85839844,136.8049927,15,L,11483,1,14,16625
BWI,KBWI,US-MD,Baltimore,Baltimore/Washington International Thurgood Marshall Airport,1,39.17539978,-76.66829681,146,L,10502,4,20,16904
SLC,KSLC,US-UT,Salt Lake City,Salt Lake City International Airport,1,40.78839874,-111.9779968,4227,L,12004,4,22,18967
LBA,EGNM,GB-ENG,Leeds,Leeds Bradford Airport,0,53.86589813,-1.660570025,681,L,7382,1,10,13666
MDW,KMDW,US-IL,Chicago,Chicago Midway International Airport,1,41.7859993,-87.75240326,620,L,6522,5,19,14892
NAP,LIRN,IT-72,N├ípoli,Naples International Airport,0,40.886002,14.2908,294,L,8622,1,11,17445
TPA,KTPA,US-FL,Tampa,Tampa International Airport,1,27.97550011,-82.53320313,26,L,11002,3,18,13307
RUH,OERK,SA-01,Riyadh,King Khaled International Airport,1,24.95759964,46.69879913,2049,L,13796,2,17,14678
MRS,LFML,FR-U,Marseille,Marseille Provence Airport,1,43.43927192,5.221424103,74,L,11483,2,16,16190
TLV,LLBG,IL-M,Tel Aviv,Ben Gurion International Airport,1,32.01139832,34.88669968,135,L,13327,3,20,15866
LYS,LFLL,FR-V,Lyon,Lyon Saint-Exup├⌐ry Airport,1,45.725556,5.081111,821,L,13124,2,17,15910
NCE,LFMN,FR-U,Nice,Nice-C├┤te d'Azur Airport,1,43.65840149,7.215869904,12,L,9712,2,14,15428
CGN,EDDK,DE-NW,Cologne,Cologne Bonn Airport,1,50.86589813,7.142739773,302,L,12516,3,20,14516
AYT,LTAI,TR-07,Antalya,Antalya International Airport,1,36.898701,30.800501,177,L,11155,3,18,15572
CMN,GMMN,MA-CAS,Casablanca,Mohammed V International Airport,1,33.36750031,-7.589970112,656,L,12205,2,15,14732
LUX,ELLX,LU-L,Luxembourg,Luxembourg-Findel International Airport,0,49.6233333,6.2044444,1234,L,13123,1,14,13270
MSY,KMSY,US-LA,New Orleans,Louis Armstrong New Orleans International Airport,1,29.99340057,-90.25800323,4,L,10104,3,17,16557
VCE,LIPZ,IT-34,Venice,Venice Marco Polo Airport,1,45.505299,12.3519,7,L,10827,2,15,15395
BGO,ENBR,NO-12,Bergen,Bergen Airport Flesland,0,60.29339981,5.218140125,170,L,9810,1,12,14950
WAW,EPWA,PL-MZ,Warsaw,Warsaw Chopin Airport,1,52.16569901,20.96710014,362,L,12106,2,16,11714
KWI,OKBK,KW-FA,Kuwait City,Kuwait International Airport,1,29.22660065,47.96889877,206,L,11483,2,15,15857
EDI,EGPH,GB-SCT,Edinburgh,Edinburgh Airport,1,55.95000076,-3.372499943,135,L,8400,3,15,15441
EIN,EHEH,NL-NB,Eindhoven,Eindhoven Airport,0,51.45009995,5.374529839,74,L,9843,1,11,14733
HNL,PHNL,US-HI,Honolulu,Daniel K Inouye International Airport,1,21.32062,-157.924228,13,L,12300,6,25,13907
SOF,LBSF,BG-23,Sofia,Sofia Airport,0,42.69669342,23.41143608,1742,L,9186,1,10,14575
YYC,CYYC,CA-AB,Calgary,Calgary International Airport,1,51.11389923,-114.0199966,3557,L,14000,4,25,11910
STL,KSTL,US-MO,St Louis,St Louis Lambert International Airport,1,38.748697,-90.370003,618,L,11019,4,22,10992
KHH,RCKH,TW-KHH,Kaohsiung City,Kaohsiung International Airport,0,22.57710075,120.3499985,31,L,10335,1,12,12864
PDX,KPDX,US-OR,Portland,Portland International Airport,1,45.58869934,-122.5979996,31,L,11000,3,19,11703
MLA,LMML,MT-25,Valletta,Malta International Airport,1,35.857498,14.4775,300,L,11627,2,16,15201
OTP,LROP,RO-B,Bucharest,Henri Coand─â International Airport,1,44.5711111,26.085,314,L,11484,2,15,14666
AMM,OJAI,JO-AM,Amman,Queen Alia International Airport,1,31.72260094,35.99319839,2395,L,12008,2,16,12817
RSW,KRSW,US-FL,Fort Myers,Southwest Florida International Airport,0,26.53619957,-81.75520325,30,L,12000,1,14,14962
HER,LGIR,GR-91,Heraklion,Heraklion International Nikos Kazantzakis Airport,1,35.33969879,25.18029976,115,L,8800,3,16,12571
OKA,ROAH,JP-47,Naha,Naha Airport,0,26.19580078,127.6460037,12,L,9840,1,11,13597
PTY,MPTO,PA-8,Tocumen,Tocumen International Airport,1,9.071359634,-79.38349915,135,L,10006,2,15,10347
ADD,HAAB,ET-AA,Addis Ababa,Addis Ababa Bole International Airport,1,8.977890015,38.79930115,7630,L,12467,2,16,12000
MCT,OOMS,OM-MA,Muscat,Muscat International Airport,1,23.59329987,58.28440094,48,L,13123,2,17,13866
ACE,GCRR,ES-CN,Lanzarote Island,Lanzarote Airport,0,28.94549942,-13.60519981,46,M,7874,1,10,11237
LPL,EGGP,GB-ENG,Liverpool,Liverpool John Lennon Airport,0,53.33359909,-2.849720001,80,L,7500,1,9,11116
VNO,EYVI,LT-VL,Vilnius,Vilnius International Airport,0,54.634102,25.285801,648,L,8251,1,10,10633
ISB,OPRN,PK-IS,Islamabad,Benazir Bhutto International Airport,0,33.61669922,73.09919739,1668,L,10785,1,12,12566
GLA,EGPF,GB-SCT,Glasgow,Glasgow International Airport,1,55.87189865,-4.433060169,26,L,8720,2,13,9523
KRK,EPKK,PL-MA,Krak├│w,John Paul II International Airport Krak├│w-Balice Airport,0,50.07770157,19.78479958,791,L,8366,1,10,9618
DLM,LTBS,TR-48,Dalaman,Dalaman International Airport,0,36.71310043,28.79249954,20,L,9842,1,11,9618
BUD,LHBP,HU-PE,Budapest,Budapest Ferenc Liszt International Airport,1,47.43690109,19.25559998,495,L,12162,2,17,13066
BSB,SBBR,BR-DF,Bras├¡lia,Presidente Juscelino Kubistschek International Airport,1,-15.86916733,-47.92083359,3497,L,10827,2,15,11550
GIG,SBGL,BR-RJ,Rio De Janeiro,Rio Gale├úo ΓÇô Tom Jobim International Airport,1,-22.80999947,-43.25055695,28,L,13123,2,17,11433
CNF,SBCF,BR-MG,Belo Horizonte,Tancredo Neves International Airport,0,-19.62444305,-43.9719429,2715,L,9843,1,12,11343
AKL,NZAA,NZ-AUK,Auckland,Auckland International Airport,1,-37.0080986,174.7920074,23,L,11926,2,16,12685
BSL,LFSB,FR-A,B├óle/Mulhouse,EuroAirport Basel-Mulhouse-Freiburg Airport,1,47.59,7.5291667,885,L,12795,2,17,10857
ACC,DGAA,GH-AA,Accra,Kotoka International Airport,0,5.6051898,-0.166786,205,L,11165,1,12,10912
GDL,MMGL,MX-JAL,Guadalajara,Don Miguel Hidalgo Y Costilla International Airport,1,20.52179909,-103.310997,5016,L,13140,2,16,9853
GOT,ESGG,SE-Q,Gothenburg,Gothenburg-Landvetter Airport,0,57.66279984,12.27980042,506,L,10823,1,12,9208
GDN,EPGD,PL-PM,Gda┼äsk,Gda┼äsk Lech Wa┼é─Ösa Airport,0,54.37760162,18.46619987,489,L,9186,1,10,12006
SJD,MMSD,MX-BCS,San Jos├⌐ del Cabo,Los Cabos International Airport,0,23.15180016,-109.7210007,374,L,9843,1,11,11050
ALG,DAAG,DZ-35,Algiers,Houari Boumediene Airport,1,36.69100189,3.215409994,82,L,11483,2,15,11104
CIA,LIRA,IT-62,Rome,CiampinoΓÇôG. B. Pastine International Airport,0,41.7994,12.5949,427,L,7242,1,10,10416
TUN,DTTA,TN-11,Tunis,Tunis Carthage International Airport,1,36.85100174,10.22719955,22,L,10499,2,14,10667
SKG,LGTS,GR-54,Thessaloniki,Thessaloniki Macedonia International Airport,1,40.5196991,22.97089958,22,L,8005,2,13,9321
IBZ,LEIB,ES-PM,Ibiza,Ibiza Airport,0,38.8728981,1.37311995,24,M,9186,1,11,8250
CEB,RPVM,PH-CEB,Lapu-Lapu City,Mactan Cebu International Airport,0,10.30749989,123.9789963,31,L,10827,1,14,9697
FUE,GCFV,ES-CN,Fuerteventura Island,Fuerteventura Airport,0,28.45269966,-13.86380005,85,M,7874,1,10,9801
BAH,OBBI,BH-15,Manama,Bahrain International Airport,1,26.27079964,50.63359833,6,L,12979,2,17,8700
NUE,EDDN,DE-BY,Nuremberg,Nuremberg Airport,0,49.498699,11.078056,1046,L,8858,1,11,11400
DWC,OMDW,AE-DU,Jebel Ali,Al Maktoum International Airport,0,24.896356,55.161389,114,L,14764,1,15,11500
SXF,EDDB,DE-BR,Berlin,Berlin-Sch├╢nefeld Airport,1,52.380001,13.5225,157,L,9843,2,15,11066
RDU,KRDU,US-NC,Raleigh/Durham,Raleigh Durham International Airport,1,35.87760162,-78.78749847,435,L,10000,3,18,10671
BLL,EKBI,DK-83,Billund,Billund Airport,0,55.74029922,9.151780128,247,L,10172,1,12,9791
PVR,MMPR,MX-JAL,Puerto Vallarta,Licenciado Gustavo D├¡az Ordaz International Airport,0,20.68009949,-105.2539978,23,L,10171,1,11,10183
AUS,KAUS,US-TX,Austin,Austin Bergstrom International Airport,1,30.19449997,-97.66989899,542,L,12248,2,17,10933
BNA,KBNA,US-TN,Nashville,Nashville International Airport,1,36.12450027,-86.67819977,599,L,11030,4,21,8297
MCI,KMCI,US-MO,Kansas City,Kansas City International Airport,1,39.2976,-94.713898,1026,L,10801,3,18,10933
DMM,OEDF,SA-04,Ad Dammam,King Fahd International Airport,1,26.47120094,49.79790115,72,L,13124,2,17,8785
CLE,KCLE,US-OH,Cleveland,Cleveland Hopkins International Airport,1,41.4117012,-81.84980011,791,L,9000,4,19,10607
BGY,LIME,IT-25,Bergamo,Il Caravaggio International Airport,1,45.673901,9.70417,782,L,9636,2,14,9642
CTS,RJCC,JP-01,Chitose / Tomakomai,New Chitose Airport,1,42.77519989,141.6920013,82,L,9840,2,14,10703
NTE,LFRS,FR-R,Nantes,Nantes Atlantique Airport,0,47.15319824,-1.610730052,90,M,9514,1,11,10925
PUS,RKPK,KR-26,Busan,Gimhae International Airport,1,35.17950058,128.9380035,6,L,10499,2,15,9523
HOU,KHOU,US-TX,Houston,William P Hobby Airport,1,29.64539909,-95.27890015,46,L,7602,4,18,8370
SCL,SCEL,CL-RM,Santiago,Comodoro Arturo Merino Ben├¡tez International Airport,1,-33.39300156,-70.78579712,1555,L,12303,2,17,10627
SDQ,MDSD,DO-01,Santo Domingo,Las Am├⌐ricas International Airport,0,18.42970085,-69.66889954,59,L,11000,1,13,10781
HAV,MUHA,CU-03,Havana,Jos├⌐ Mart├¡ International Airport,0,22.98920059,-82.40910339,210,L,13123,1,15,9750
TLS,LFBO,FR-N,Toulouse/Blagnac,Toulouse-Blagnac Airport,1,43.629101,1.36382,499,L,11483,2,16,8264
TRN,LIMF,IT-21,Torino,Turin Airport,0,45.200802,7.64963,989,L,10827,1,12,9808
HAJ,EDDV,DE-NI,Hannover,Hannover Airport,1,52.46110153,9.685079575,183,L,12467,3,19,8776
PSA,LIRP,IT-52,Pisa,Pisa International Airport,1,43.683899,10.3927,6,L,9820,2,13,9228
CAG,LIEE,IT-88,Cagliari,Cagliari Elmas Airport,0,39.251499,9.05428,13,L,9196,1,11,8689
CVG,KCVG,US-KY,Cincinnati,Cincinnati Northern Kentucky International Airport,1,39.04880142,-84.6678009,896,L,12000,4,22,8928
EZE,SAEZ,AR-B,Buenos Aires,Ministro Pistarini International Airport,1,-34.8222,-58.5358,67,L,10827,2,15,8214
PIT,KPIT,US-PA,Pittsburgh,Pittsburgh International Airport,1,40.49150085,-80.23290253,1203,L,11500,4,22,7664
PFO,LCPH,CY-06,Paphos,Paphos International Airport,0,34.7179985,32.4856987,41,L,8858,1,10,8925
ZAG,LDZA,HR-21,Zagreb,Zagreb Airport,0,45.74290085,16.06879997,353,L,10669,1,12,7612
TIJ,MMTJ,MX-BCN,Tijuana,General Abelardo L. Rodr├¡guez International Airport,0,32.54109955,-116.9700012,489,L,9711,1,11,7350
PUJ,MDPC,DO-11,Punta Cana,Punta Cana International Airport,1,18.56739998,-68.36340332,47,L,10171,2,14,9472
MTY,MMMY,MX-NLE,Monterrey,General Mariano Escobedo International Airport,1,25.7784996,-100.1070023,1278,L,9843,2,14,9685
VLC,LEVC,ES-V,Valencia,Valencia Airport,0,39.4893,-0.481625,240,M,8858,2,13,7004
RHO,LGRP,GR-81,Rodes Island,Diagoras Airport,0,36.40539932,28.08620071,17,M,10846,1,12,8200
KRT,HSSS,SD-03,Khartoum,Khartoum International Airport,0,15.58950043,32.55319977,1265,L,9751,1,11,7602
HRG,HEGN,EG-BA,Hurghada,Hurghada International Airport,0,27.17830086,33.79940033,52,L,13124,1,14,8333
IND,KIND,US-IN,Indianapolis,Indianapolis International Airport,1,39.7173,-86.294403,797,L,11200,3,18,7557
VRN,LIPX,IT-34,Verona,Verona Villafranca Airport,0,45.395699,10.8885,239,L,10064,1,12,9262
UIO,SEQM,EC-P,Quito,Mariscal Sucre International Airport,0,-0.129166667,-78.3575,7841,L,13445,1,14,8937
YEG,CYEG,CA-AB,Edmonton,Edmonton International Airport,1,53.30970001,-113.5800018,2373,L,11000,2,16,8823
SAT,KSAT,US-TX,San Antonio,San Antonio International Airport,1,29.53370094,-98.46980286,809,L,8502,3,16,8419
DKR,GOOY,SN-DK,Dakar,L├⌐opold S├⌐dar Senghor International Airport,1,14.73970032,-17.49020004,85,L,11450,2,15,6779
BOD,LFBD,FR-B,Bordeaux/M├⌐rignac,Bordeaux-M├⌐rignac Airport,1,44.82830048,-0.715556026,162,L,10171,2,15,9092
NAS,MYNN,BS-NP,Nassau,Lynden Pindling International Airport,1,25.03899956,-77.46620178,16,L,11353,2,16,8694
BEY,OLBA,LB-JL,Beirut,Beirut Rafic Hariri International Airport,1,33.82089996,35.48839951,87,L,12467,3,18,7577
SJO,MROC,CR-A,San Jose,Juan Santamaria International Airport,0,9.993860245,-84.20880127,3021,M,9882,1,12,8470
TLL,EETN,EE-37,Tallinn,Lennart Meri Tallinn Airport,0,59.41329956,24.83279991,131,L,10072,1,11,7837
TSF,LIPH,IT-34,Treviso,Treviso-Sant'Angelo Airport,0,45.648399,12.1944,59,L,7941,1,10,7362
ADB,LTBJ,TR-35,─░zmir,Adnan Menderes International Airport,1,38.29240036,27.15699959,412,L,10630,2,15,8328
MKE,KMKE,US-WI,Milwaukee,General Mitchell International Airport,1,42.94720078,-87.89659882,723,L,9690,5,23,7428
MHD,OIMM,IR-30,Mashhad,Mashhad International Airport,1,36.23519897,59.64099884,3263,L,12877,2,16,7041
RAK,GMMX,MA-MAR,Marrakech,Menara Airport,0,31.60689926,-8.036299706,1545,M,10170,1,11,8060
CMH,KCMH,US-OH,Columbus,John Glenn Columbus International Airport,1,39.998001,-82.891899,815,L,10125,2,15,8025
PMO,LICJ,IT-82,Palermo,FalconeΓÇôBorsellino Airport,1,38.175999,13.091,65,L,10912,2,14,8100
TIA,LATI,AL-11,Tirana,Tirana International Airport Mother Teresa,0,41.41469955,19.72060013,126,L,9022,1,10,7500
SCQ,LEST,ES-GA,Santiago de Compostela,Santiago de Compostela Airport,0,42.89630127,-8.415140152,1213,L,10499,1,11,8400
THR,OIII,IR-07,Tehran,Mehrabad International Airport,1,35.68920135,51.31340027,3962,L,13248,3,19,8488
LOS,DNMM,NG-LA,Lagos,Murtala Muhammed International Airport,1,6.577370167,3.321160078,135,L,12794,2,16,7428
SJC,KSJC,US-CA,San Jose,Norman Y. Mineta San Jose International Airport,1,37.362598,-121.929001,62,L,11000,3,18,6571
LIN,LIML,IT-25,Milan,Milano Linate Airport,1,45.445099,9.27674,353,L,8005,2,12,7214
IKA,OIIE,IR-07,Tehran,Imam Khomeini International Airport,1,35.41609955,51.15219879,3305,L,13940,2,17,5857
CJU,RKPC,KR-49,Jeju City,Jeju International Airport,1,33.51129913,126.4929962,118,L,9843,2,14,7515
MEM,KMEM,US-TN,Memphis,Memphis International Airport,1,35.04240036,-89.97669983,341,L,11120,4,21,5730
ANC,PANC,US-AK,Anchorage,Ted Stevens Anchorage International Airport,1,61.17440033,-149.9960022,152,L,11584,3,20,6214
SSA,SBSV,BR-BA,Salvador,Deputado Luiz Eduardo Magalh├úes International Airport,1,-12.9086113,-38.32249832,64,L,9859,2,14,6697
DTM,EDLW,DE-NW,Dortmund,Dortmund Airport,0,51.5182991,7.612239838,425,L,6562,1,9,6256
SOU,EGHI,GB-ENG,Southampton,Southampton Airport,0,50.95029831,-1.35679996,44,L,5653,1,8,6943
WRO,EPWR,PL-DS,Wroc┼éaw,Copernicus Wroc┼éaw Airport,0,51.10269928,16.88579941,404,L,8202,1,9,7150
LJU,LJLJ,SI-061,Ljubljana,Ljubljana Jo┼╛e Pu─ìnik Airport,0,46.223701,14.4576,1273,L,10827,1,12,5912
BIO,LEBB,ES-PV,Bilbao,Bilbao Airport,0,43.30110168,-2.910609961,138,M,8530,2,13,6906
SVQ,LEZL,ES-AN,Sevilla,Sevilla Airport,0,37.41799927,-5.893109798,112,M,11024,1,12,5552
AEP,SABE,AR-C,Buenos Aires,Jorge Newbery Airpark,0,-34.5592,-58.4156,18,M,6890,1,9,5484
CWL,EGFF,GB-WLS,Cardiff,Cardiff International Airport,0,51.39670181,-3.343329906,220,L,7848,1,10,6133
TFN,GCXO,ES-CN,Tenerife Island,Tenerife Norte Airport,0,28.48270035,-16.34149933,2076,L,11155,1,12,6800
WLG,NZWN,NZ-WGN,Wellington,Wellington International Airport,0,-41.32720184,174.8049927,41,L,6352,1,8,7333
SMF,KSMF,US-CA,Sacramento,Sacramento International Airport,1,38.69540024,-121.5910034,27,L,8601,2,13,5500
LCY,EGLC,GB-ENG,London,London City Airport,0,51.505299,0.055278,19,M,4948,1,7,5360
KHI,OPKC,PK-SD,Karachi,Jinnah International Airport,0,24.9065,67.160797,100,M,11155,2,15,6910
BJV,LTFE,TR-48,Bodrum,Milas Bodrum International Airport,0,37.25059891,27.66430092,21,L,9842,1,11,6781
SVG,ENZV,NO-11,Stavanger,Stavanger Airport Sola,1,58.87670135,5.63778019,29,L,9369,2,14,5207
OAK,KOAK,US-CA,Oakland,Metropolitan Oakland International Airport,1,37.721298,-122.221001,9,L,10000,4,20,5657
SAL,MSLP,SV-PA,San Salvador (San Luis Talpa),Monse├▒or ├ôscar Arnulfo Romero International Airport,1,13.4409,-89.055702,101,L,10500,2,15,6940
DBV,LDDU,HR-19,Dubrovnik,Dubrovnik Airport,0,42.56140137,18.26819992,527,M,10827,1,12,5437
BVA,LFOB,FR-S,Beauvais/Till├⌐,Paris Beauvais Till├⌐ Airport,0,49.45439911,2.112780094,359,M,7972,3,14,7000
ABV,DNAA,NG-FC,Abuja,Nnamdi Azikiwe International Airport,0,9.006790161,7.263169765,1123,L,11842,1,13,5750
KIN,MKJP,JM-01,Kingston,Norman Manley International Airport,0,17.93569946,-76.78749847,10,L,8900,1,10,5562
POM,AYPY,PG-NCD,Port Moresby,Port Moresby Jacksons International Airport,1,-9.443380356,147.2200012,146,L,9022,2,13,6376
ESB,LTAC,TR-06,Ankara,Esenbo─ƒa International Airport,1,40.12810135,32.99509811,3125,L,12303,2,16,5447
BDL,KBDL,US-CT,Hartford,Bradley International Airport,1,41.93889999,-72.68319702,173,L,9510,3,18,5039
GSP,KGSP,US-SC,Greenville,Greenville Spartanburg International Airport,0,34.89569855,-82.21890259,964,L,11000,1,13,6827
BRE,EDDW,DE-HB,Bremen,Bremen Airport,1,53.04750061,8.786669731,14,L,6693,2,11,5000
BRI,LIBD,IT-75,Bari,Bari Karol Wojty┼éa Airport,1,41.138901,16.760599,177,L,9252,2,13,6428
VCP,SBKP,BR-SP,Campinas,Viracopos International Airport,0,-23.00740051,-47.1344986,2170,M,10630,1,12,5521
LHE,OPLA,PK-PB,Lahore,Alama Iqbal International Airport,0,31.52160072,74.4036026,712,M,11024,2,15,5600
SFB,KSFB,US-FL,Orlando,Orlando Sanford International Airport,1,28.77759933,-81.23750305,55,L,9600,4,19,5541
KTW,EPKT,PL-SL,Katowice,Katowice International Airport,0,50.4743,19.08,995,L,9183,1,10,5075
BZE,MZBZ,BZ-BZ,Belize City,Philip S. W. Goldson International Airport,0,17.53910065,-88.30819702,15,L,7100,1,9,6708
TIP,HLLT,LY-TB,Tripoli,Tripoli International Airport,1,32.66350174,13.1590004,263,L,11815,2,16,4685
CGH,SBSP,BR-SP,S├úo Paulo,Congonhas Airport,1,-23.62611008,-46.65638733,2631,L,6365,2,11,6378
FLR,LIRQ,IT-52,Firenze,Peretola Airport,0,43.810001,11.2051,142,M,5425,1,7,6072
JAX,KJAX,US-FL,Jacksonville,Jacksonville International Airport,1,30.49410057,-81.68789673,30,L,10000,2,15,5969
OLB,LIEO,IT-88,Olbia (SS),Olbia Costa Smeralda Airport,0,40.898701,9.51763,37,M,8025,1,9,5904
FNC,LPMA,PT-30,Funchal,Madeira Airport,0,32.69789886,-16.77449989,192,M,9110,1,10,4658
TOS,ENTC,NO-19,Troms├╕,Troms├╕ Airport,0,69.6832962,18.91889954,31,L,7848,1,9,5687
WMI,EPMO,PL-MZ,Warsaw,Modlin Airport,0,52.4510994,20.65180016,341,L,8202,1,9,4875
KEF,BIKF,IS-2,Reykjav├¡k,Keflavik International Airport,1,63.98500061,-22.60560036,171,L,10056,2,15,5196
YOW,CYOW,CA-ON,Ottawa,Ottawa Macdonald-Cartier International Airport,1,45.32249832,-75.66919708,374,L,10000,3,18,6160
DLA,FKKD,CM-LT,Douala,Douala International Airport,0,4.006080151,9.719479561,33,M,9350,1,10,4515
TRD,ENVA,NO-17,Trondheim,Trondheim Airport V├ªrnes,1,63.4578018,10.9239998,56,L,9052,3,16,5866
CPT,FACT,ZA-WC,Cape Town,Cape Town International Airport,1,-33.96480179,18.60169983,151,L,10502,2,15,5814
PBI,KPBI,US-FL,West Palm Beach,Palm Beach International Airport,1,26.68320084,-80.09559631,19,L,10008,3,18,5814
ABJ,DIAP,CI-01,Abidjan,Port Bouet Airport,0,5.261390209,-3.926290035,21,M,9843,1,12,5364
CFU,LGKR,GR-22,Kerkyra Island,Ioannis Kapodistrias International Airport,0,39.60189819,19.9116993,6,M,7792,1,9,4375
GCM,MWCR,KY-U-A,Georgetown,Owen Roberts International Airport,0,19.2928009,-81.35769653,8,L,7021,1,9,5781
YHZ,CYHZ,CA-NS,Halifax,Halifax / Stanfield International Airport,1,44.88079834,-63.50859833,477,L,10500,2,15,4658
CWB,SBCT,BR-PR,Curitiba,Afonso Pena Airport,1,-25.5284996,-49.17580032,2988,L,7267,2,12,5016
SPU,LDSP,HR-17,Split,Split Airport,0,43.53889847,16.29800034,79,M,8366,1,10,5563
GRO,LEGE,ES-GE,Girona,Girona Airport,0,41.90100098,2.760550022,468,M,7874,1,9,5665
ABQ,KABQ,US-NM,Albuquerque,Albuquerque International Sunport Airport,1,35.040199,-106.609001,5355,L,13793,4,21,4450
SNA,KSNA,US-CA,Santa Ana,John Wayne Airport-Orange County Airport,1,33.67570114,-117.8679962,56,L,5700,2,12,5250
ITM,RJOO,JP-27,Osaka,Osaka International Airport,1,34.78549957,135.4380035,50,L,9840,2,15,4400
HHN,EDFH,DE-RP,Frankfurt am Main,Frankfurt-Hahn Airport,0,49.9487,7.26389,1649,M,12467,1,14,5189
YWG,CYWG,CA-MB,Winnipeg,Winnipeg / James Armstrong Richardson International Airport,1,49.90999985,-97.23989868,783,L,11000,3,19,4100
ABZ,EGPD,GB-SCT,Aberdeen,Aberdeen Dyce Airport,1,57.20190048,-2.197779894,215,L,6001,4,16,5320
SDF,KSDF,US-KY,Louisville,Louisville International Standiford Field,1,38.1744,-85.736,501,L,10850,3,18,5466
LAD,FNLU,AO-LUA,Luanda,Quatro de Fevereiro Airport,0,-8.858369827,13.23120022,243,M,12190,2,16,4360
PDL,LPPD,PT-20,Ponta Delgada,Jo├úo Paulo II Airport,0,37.74119949,-25.69790077,259,L,8192,1,9,4025
LEJ,EDDP,DE-SN,Leipzig,Leipzig/Halle Airport,1,51.423889,12.236389,465,L,11811,2,16,3857
OKC,KOKC,US-OK,Oklahoma City,Will Rogers World Airport,1,35.39310074,-97.60070038,1295,L,9802,4,19,5333
MBJ,MKJS,JM-08,Montego Bay,Sangster International Airport,0,18.50370026,-77.91339874,4,M,8735,1,11,3796
MED,OEMA,SA-03,Medina,Prince Mohammad Bin Abdulaziz Airport,1,24.5534,39.705101,2151,L,13149,2,17,3946
SYZ,OISS,IR-14,Shiraz,Shiraz Shahid Dastghaib International Airport,1,29.53919983,52.58980179,4920,L,14345,2,17,4689
GMP,RKSS,KR-11,Seoul,Gimpo International Airport,1,37.5583,126.791,59,L,11811,2,17,4782
CHQ,LGSA,GR-94,Souda,Chania International Airport,0,35.53170013,24.14970016,490,M,10982,1,13,4858
DRS,EDDC,DE-SN,Dresden,Dresden Airport,0,51.13280106,13.76720047,755,L,8228,1,10,4766
DAL,KDAL,US-TX,Dallas,Dallas Love Field,1,32.847099,-96.851799,487,L,8800,3,16,4569
RIC,KRIC,US-VA,Richmond,Richmond International Airport,1,37.50519943,-77.31970215,167,L,9003,3,17,4885
KGS,LGKO,GR-81,Kos Island,Kos Airport,0,36.79330063,27.0916996,412,M,7841,1,10,4210
NAN,NFFN,FJ-W,Nadi,Nadi International Airport,0,-17.7553997,177.4429932,59,M,10739,2,15,4792
HBE,HEBA,EG-ALX,Alexandria,Borg El Arab International Airport,0,30.91769981,29.69639969,177,M,11156,3,17,4856
OGG,PHOG,US-HI,Kahului,Kahului Airport,0,20.8986,-156.429993,54,M,6995,2,12,4593
POA,SBPA,BR-RS,Porto Alegre,Salgado Filho Airport,0,-29.99440002,-51.17139816,11,M,7480,1,9,4375
BHD,EGAC,GB-NIR,Belfast,George Best Belfast City Airport,0,54.61809921,-5.872499943,15,L,6001,1,8,3631
DUR,FALE,ZA-NL,Durban,King Shaka International Airport,0,-29.61444444,31.11972222,295,L,12139,1,13,4375
BFS,EGAA,GB-NIR,Belfast,Belfast International Airport,1,54.65750122,-6.215829849,268,L,9121,2,14,4542
BHM,KBHM,US-AL,Birmingham,Birmingham-Shuttlesworth International Airport,1,33.56290054,-86.75350189,650,L,10000,2,15,3642
BUF,KBUF,US-NY,Buffalo,Buffalo Niagara International Airport,1,42.94049835,-78.73220062,728,L,8102,2,13,3557
ORF,KORF,US-VA,Norfolk,Norfolk International Airport,1,36.89459991,-76.20120239,26,L,9001,2,14,4028
BEL,SBBE,BR-PA,Bel├⌐m,Val de Cans/J├║lio Cezar Ribeiro International Airport,1,-1.37925005,-48.47629929,54,L,9186,3,16,4157
COO,DBBB,BJ-AQ,Cotonou,Cadjehoun Airport,0,6.357230186,2.384350061,19,M,7874,1,10,4484
MRU,FIMP,MU-GP,Port Louis,Sir Seewoosagur Ramgoolam International Airport,0,-20.43020058,57.68360138,186,M,11056,1,12,3416
KGL,HRYR,RW-01,Kigali,Kigali International Airport,0,-1.968629956,30.13949966,4859,M,11483,1,13,3791
LIL,LFQQ,FR-O,Lille/Lesquin,Lille-Lesquin Airport,0,50.563332,3.086886,157,M,9268,2,13,4416
TSA,RCSS,TW-TPE,Taipei City,Taipei Songshan Airport,0,25.06940079,121.552002,18,M,8547,1,10,3416
DAR,HTDA,TZ-02,Dar es Salaam,Julius Nyerere International Airport,1,-6.87811,39.202599,182,L,9843,2,13,3458
GUM,PGUM,GU-U-A,Hag├Ñt├▒a; Guam International Airport,Antonio B. Won Pat International Airport,1,13.48340034,144.7960052,298,L,12015,2,16,4625
FKB,EDSB,DE-BW,Baden-Baden,Karlsruhe Baden-Baden Airport,0,48.77939987,8.080499649,408,L,9787,1,12,3583
LEX,KLEX,US-KY,Lexington,Blue Grass Airport,0,38.03649902,-84.60590363,979,L,7003,1,9,4666
GOA,LIMJ,IT-42,Genova,Genoa Cristoforo Colombo Airport,0,44.4133,8.8375,13,L,9564,1,11,3833
AJA,LFKJ,FR-H,Ajaccio/Napol├⌐on Bonaparte,Ajaccio-Napol├⌐on Bonaparte Airport,0,41.92359924,8.802920341,18,M,7897,1,10,4590
ORK,EICK,IE-C,Cork,Cork Airport,1,51.84130096,-8.491109848,502,L,6998,2,11,4166
LUN,FLLS,ZM-09,Lusaka,Kenneth Kaunda International Airport Lusaka,1,-15.33080006,28.45260048,3779,L,12998,2,16,4791
CHS,KCHS,US-SC,Charleston,Charleston Air Force Base-International Airport,1,32.89860153,-80.04049683,46,L,9001,2,15,4791
CHC,NZCH,NZ-CAN,Christchurch,Christchurch International Airport,1,-43.48939896,172.5319977,123,L,10787,3,18,4166
NRN,EDLV,DE-NW,Weeze,Weeze Airport,0,51.60240173,6.142169952,106,M,8005,1,10,3562
JER,EGJJ,JE-U-A,Saint Helier,Jersey Airport,0,49.207901,-2.195509911,277,M,5597,1,8,3839
SSH,HESH,EG-JS,Sharm el-Sheikh,Sharm El Sheikh International Airport,0,27.97730064,34.39500046,143,M,10108,2,14,3483
PPT,NTAA,PF-U-A,Papeete,Faa'a International Airport,0,-17.55369949,-149.6069946,5,M,11360,1,12,3641
BOH,EGHH,GB-ENG,Bournemouth,Bournemouth Airport,0,50.77999878,-1.842499971,38,L,7451,1,9,3666
DJE,DTTJ,TN-82,Djerba,Djerba Zarzis International Airport,0,33.875,10.7755003,19,M,10171,1,11,3507
RYG,ENRY,NO-01,Oslo,Moss-Rygge Airport,0,59.378817,10.785439,174,M,8012,1,9,4162
TRF,ENTO,NO-07,Torp,Sandefjord Airport,0,59.18669891,10.25860024,286,M,9675,1,11,3545
GUA,MGGT,GT-GU,Guatemala City,La Aurora Airport,0,14.58329964,-90.52749634,4952,M,9800,1,12,3969
SAH,OYSN,YE-SN,Sana'a,Sana'a International Airport,0,15.47630024,44.21969986,7216,M,10669,1,11,3314
DAY,KDAY,US-OH,Dayton,James M Cox Dayton International Airport,1,39.90240097,-84.2193985,1009,L,10900,3,18,3458
BIA,LFKB,FR-H,Bastia/Poretta,Bastia-Poretta Airport,0,42.55270004,9.483730316,26,M,8266,1,10,3900
FOR,SBFZ,BR-CE,Fortaleza,Pinto Martins International Airport,0,-3.776279926,-38.5326004,82,M,8350,1,10,3150
REC,SBRF,BR-PE,Recife,Guararapes - Gilberto Freyre International Airport,0,-8.126489639,-34.92359924,33,M,9865,1,11,3487
BOO,ENBO,NO-18,Bod├╕,Bod├╕ Airport,0,67.26920319,14.36530018,42,L,11136,1,12,3416
KOJ,RJFK,JP-46,Kagoshima,Kagoshima Airport,0,31.80340004,130.7189941,906,L,9840,1,12,4541
TUS,KTUS,US-AZ,Tucson,Tucson International Airport,1,32.11610031,-110.9410019,2643,L,10996,3,18,3500
TYS,KTYS,US-TN,Knoxville,McGhee Tyson Airport,1,35.81100082,-83.9940033,981,L,9005,2,15,3916
GYE,SEGU,EC-G,Guayaquil,Jos├⌐ Joaqu├¡n de Olmedo International Airport,0,-2.15741992,-79.88359833,19,M,9154,1,11,3281
ROC,KROC,US-NY,Rochester,Greater Rochester International Airport,1,43.1189003,-77.67240143,559,L,8001,3,16,3791
ORN,DAOO,DZ-31,Oran,Es Senia Airport,0,35.62390137,-0.621182978,295,M,10039,1,11,3577
EBB,HUEN,UG-102,Kampala,Entebbe International Airport,0,0.042385999,32.44350052,3782,M,12000,2,15,4002
MYR,KMYR,US-SC,Myrtle Beach,Myrtle Beach International Airport,0,33.67969894,-78.92829895,25,M,9503,1,12,4072
OMA,KOMA,US-NE,Omaha,Eppley Airfield,0,41.30319977,-95.89409637,984,M,9502,3,17,3647
MAH,LEMH,ES-PM,Menorca Island,Menorca Airport,0,39.86259842,4.218649864,302,M,7710,2,12,3825
SXB,LFST,FR-A,Strasbourg,Strasbourg Airport,0,48.53829956,7.628230095,505,M,7874,1,10,3010
SZG,LOWS,AT-5,Salzburg,Salzburg Airport,0,47.79330063,13.00430012,1411,M,9022,1,11,2904
KIV,LUKK,MD-C,Chi┼ƒin─âu,Chi┼ƒin─âu International Airport,0,46.92770004,28.93099976,399,M,11779,1,13,3081
ADA,LTAF,TR-01,Adana,Adana Airport,0,36.98220062,35.28039932,65,L,9022,1,11,4208
SNN,EINN,IE-CE,Limerick,Shannon Airport,1,52.70199966,-8.924819946,46,L,10495,5,22,4416
DSM,KDSM,US-IA,Des Moines,Des Moines International Airport,1,41.5340004,-93.6631012,958,L,9003,2,14,3500
LIT,KLIT,US-AR,Little Rock,Bill & Hillary Clinton National Airport/Adams Field,1,34.72940063,-92.22429657,262,L,8273,3,16,3750
OUA,DFFD,BF-KAD,Ouagadougou,Ouagadougou Airport,0,12.35319996,-1.512420058,1037,M,9934,2,14,3918
RTM,EHRD,NL-ZH,Rotterdam,Rotterdam The Hague Airport,0,51.956902,4.43722,-15,M,7218,1,9,3265
CGB,SBCY,BR-MT,Cuiab├í,Marechal Rondon Airport,0,-15.65289974,-56.11669922,617,M,7546,1,9,3128
MAO,SBEG,BR-AM,Manaus,Eduardo Gomes International Airport,0,-3.038609982,-60.04970169,264,M,8858,1,11,3233
SJJ,LQSA,BA-BIH,Sarajevo,Sarajevo International Airport,0,43.82460022,18.3314991,1708,L,8666,1,10,4291
NAT,SBSG,BR-RN,Natal,Governador Alu├¡zio Alves International Airport,0,-5.768056,-35.376111,272,L,9843,1,11,3583
NYO,ESKN,SE-D,Stockholm / Nyk├╢ping,Stockholm Skavsta Airport,0,58.78860092,16.91220093,140,M,9442,2,13,2841
ALB,KALB,US-NY,Albany,Albany International Airport,0,42.74829865,-73.80169678,285,M,7200,2,13,3132
PIE,KPIE,US-FL,St Petersburg-Clearwater,St Petersburg Clearwater International Airport,0,27.91020012,-82.68740082,11,M,8800,4,19,3552
AHO,LIEA,IT-88,Alghero,Alghero-Fertilia Airport,0,40.632099,8.29077,87,M,9843,1,11,2841
PLS,MBPV,TC-PR,Providenciales Island,Providenciales Airport,0,21.77359962,-72.26589966,15,M,7598,1,9,3713
SDJ,RJSS,JP-04,Sendai,Sendai Airport,0,38.13970184,140.9170074,15,M,9842,2,14,3390
RNO,KRNO,US-NV,Reno,Reno Tahoe International Airport,1,39.49909973,-119.7679977,4415,L,11002,3,18,3583
TUL,KTUL,US-OK,Tulsa,Tulsa International Airport,1,36.19839859,-95.88809967,677,L,9999,3,18,4291
FAI,PAFA,US-AK,Fairbanks,Fairbanks International Airport,1,64.81510162,-147.8560028,439,L,11800,4,22,3458
YZF,CYZF,CA-NT,Yellowknife,Yellowknife Airport,0,62.46279907,-114.4400024,675,M,7500,2,12,2843
PEW,OPPS,PK-NW,Peshawar,Peshawar International Airport,0,33.9939003,71.51460266,1158,M,9000,1,11,2593
EBL,ORER,IQ-AR,Arbil,Erbil International Airport,0,36.23759842,43.96319962,1341,M,13890,4,22,2687
SDU,SBRJ,BR-RJ,Rio De Janeiro,Santos Dumont Airport,0,-22.91049957,-43.1631012,11,M,4341,2,9,2875
CLO,SKCL,CO-VAC,Cali,Alfonso Bonilla Aragon International Airport,0,3.54322,-76.3816,3162,M,9842,1,11,2656
SYR,KSYR,US-NY,Syracuse,Syracuse Hancock International Airport,1,43.11119843,-76.10630035,421,L,9003,3,16,3625
BET,PABE,US-AK,Bethel,Bethel Airport,0,60.77980042,-161.8379974,126,M,6400,3,14,3020
RMQ,RCMQ,TW-TXG,Taichung City,Taichung Ching Chuang Kang Airport,0,24.26469994,120.6210022,663,M,12000,1,13,2628
EXT,EGTE,GB-ENG,Exeter,Exeter International Airport,1,50.7344017,-3.413889885,102,L,6834,2,11,4083
GSO,KGSO,US-NC,Greensboro,Piedmont Triad International Airport,1,36.09780121,-79.93730164,925,L,10001,3,17,4500
HMO,MMHO,MX-SON,Hermosillo,General Ignacio P. Garcia International Airport,1,29.09589958,-111.0479965,627,L,7546,2,12,3333
YQB,CYQB,CA-QC,Quebec,Quebec Jean Lesage International Airport,0,46.7911,-71.393303,244,M,9000,2,14,2887
BKO,GABS,ML-2,Senou,Senou Airport,0,12.53349972,-7.949940205,1247,M,8879,1,10,2566
AGA,GMAD,MA-AGD,Agadir,Al Massira Airport,0,30.32500076,-9.413069725,250,M,10499,1,11,3033
GRR,KGRR,US-MI,Grand Rapids,Gerald R. Ford International Airport,0,42.88079834,-85.52279663,794,M,10000,3,18,3091
TPS,LICT,IT-82,Trapani (TP),Vincenzo Florio Airport Trapani-Birgi,0,37.9114,12.488,25,M,8852,1,10,2420
VLI,NVVV,VU-SEE,Port Vila,Bauerfield International Airport,0,-17.69930077,168.3200073,70,M,8530,2,13,2887
KBL,OAKB,AF-KAB,Kabul,Kabul International Airport,0,34.5658989,69.21230316,5877,M,11483,1,12,2420
RAR,NCRG,CK-U-A,Avarua,Rarotonga International Airport,0,-21.20269966,-159.8059998,19,L,7638,1,9,3833
DVO,RPMD,PH-DAV,Davao City,Francisco Bangoy International Airport,0,7.125520229,125.6460037,96,L,9842,1,11,3458
ONT,KONT,US-CA,Ontario,Ontario International Airport,1,34.05599976,-117.6009979,944,L,12198,2,16,4666
BMA,ESSB,SE-AB,Stockholm,Stockholm-Bromma Airport,0,59.35440063,17.94169998,47,M,5472,1,8,2418
TNR,FMMI,MG-T,Antananarivo,Ivato Airport,0,-18.7968998,47.47880173,4198,M,10171,1,11,2418
FIH,FZAA,CD-KN,Kinshasa,Ndjili International Airport,0,-4.385749817,15.44460011,1027,M,15420,1,16,3065
PVD,KPVD,US-RI,Providence,Theodore Francis Green State Airport,0,41.73260117,-71.42040253,55,M,8700,2,14,2925
SAV,KSAV,US-GA,Savannah,Savannah Hilton Head International Airport,1,32.12760162,-81.20210266,50,L,9351,2,15,3750
HRE,FVHA,ZW-HA,Harare,Harare International Airport,0,-17.93180084,31.09280014,4887,M,15502,1,16,2491
PSP,KPSP,US-CA,Palm Springs,Palm Springs International Airport,0,33.82970047,-116.5070038,477,M,10000,2,15,2979
ZAD,LDZD,HR-13,Zadar,Zemunik Airport,0,44.10829926,15.34669971,289,M,8202,2,12,2897
MDE,SKRG,CO-ANT,Medell├¡n,Jose Maria C├│rdova International Airport,0,6.16454,-75.4231,6955,M,11483,1,13,3060
VRA,MUVR,CU-04,Varadero,Juan Gualberto Gomez International Airport,0,23.03440094,-81.43530273,210,L,11490,1,13,3583
YYT,CYYT,CA-NL,St. John's,St. John's International Airport,1,47.61859894,-52.75189972,461,L,8502,3,16,4000
HIR,AGGH,SB-CT,Honiara,Honiara International Airport,0,-9.42800045,160.0549927,28,M,7218,1,9,2317
YRT,CYRT,CA-NU,Rankin Inlet,Rankin Inlet Airport,0,62.81140137,-92.11579895,94,M,6000,1,8,2760
BZV,FCBB,CG-12,Brazzaville,Maya-Maya Airport,0,-4.251699924,15.25300026,1048,M,10827,1,12,2708
BEN,HLLB,LY-BA,Benghazi,Benina International Airport,0,32.09680176,20.26950073,433,M,11732,2,16,2447
SUF,LICA,IT-78,Lamezia Terme (CZ),Lamezia Terme Airport,0,38.905399,16.2423,39,M,7920,1,9,2161
OME,PAOM,US-AK,Nome,Nome Airport,0,64.5121994,-165.4450073,37,M,6001,2,11,2473
LBV,FOOL,GA-1,Libreville,Libreville Leon M'ba International Airport,0,0.458600014,9.412280083,39,M,9844,1,11,2575
ELP,KELP,US-TX,El Paso,El Paso International Airport,0,31.80719948,-106.3779984,3959,M,12020,3,19,2800
XNA,KXNA,US-AR,Fayetteville/Springdale/Rogers,Northwest Arkansas Regional Airport,0,36.281898,-94.306801,1287,M,8800,1,11,2475
MPL,LFMT,FR-K,Montpellier/M├⌐diterran├⌐e,Montpellier-M├⌐diterran├⌐e Airport,0,43.57619858,3.963010073,17,M,8530,2,13,2425
SKP,LWSK,MK-004,Skopje,Skopje Alexander the Great Airport,0,41.961601,21.621401,781,M,8038,1,9,2075
PAP,MTPP,HT-OU,Port-au-Prince,Toussaint Louverture International Airport,0,18.57999992,-72.29250336,122,M,9974,1,11,2025
AWZ,OIAW,IR-10,Ahwaz,Ahwaz Airport,0,31.33740044,48.76200104,66,M,11149,1,12,2325
POZ,EPPO,PL-WP,Pozna┼ä,Pozna┼ä-┼üawica Airport,1,52.42100143,16.82629967,308,L,8215,2,12,3791
BOI,KBOI,US-ID,Boise,Boise Air Terminal/Gowen field,1,43.56439972,-116.2229996,2871,L,10000,3,18,4500
FLN,SBFL,BR-SC,Florian├│polis,Herc├¡lio Luz International Airport,1,-27.67027855,-48.55250168,16,L,7546,2,12,3666
JUB,HSSJ,SS-17,Juba,Juba International Airport,0,4.872010231,31.60110092,1513,L,7874,1,9,3750
AVL,KAVL,US-NC,Asheville,Asheville Regional Airport,0,35.43619919,-82.54180145,2165,L,8001,1,10,4291
BOJ,LBBG,BG-02,Burgas,Burgas Airport,0,42.56959915,27.51519966,135,L,10499,1,11,4083
FMM,EDJA,DE-BY,Memmingen,Memmingen Allgau Airport,0,47.98880005,10.23950005,2077,M,9780,1,11,2659
JIB,HDAM,DJ-DJ,Djibouti City,Djibouti-Ambouli Airport,0,11.54730034,43.15950012,49,M,10335,1,12,1940
HPN,KHPN,US-NY,White Plains,Westchester County Airport,0,41.06700134,-73.70760345,439,M,6548,2,12,2252
SAP,MHLM,HN-CR,San Pedro Sula,Ram├│n Villeda Morales International Airport,0,15.4526,-87.923599,91,M,9203,1,11,2683
LIR,MRLB,CR-G,Liberia,Daniel Oduber Quiros International Airport,0,10.59329987,-85.54440308,270,M,9022,1,11,2323
ADE,OYAA,YE-AD,Aden,Aden International Airport,0,12.8295002,45.02880096,7,M,10171,1,12,2611
AAL,EKYT,DK-81,Aalborg,Aalborg Airport,1,57.09275891,9.849243164,10,L,8707,2,13,3708
ICT,KICT,US-KS,Wichita,Wichita Mid Continent Airport,1,37.64989853,-97.43309784,1333,L,10301,3,18,3958
MHT,KMHT,US-NH,Manchester,Manchester Airport,1,42.93259811,-71.43569946,266,L,9250,2,14,4750
BTS,LZIB,SK-BL,Bratislava,M. R. ┼átef├ínik Airport,1,48.17020035,17.21269989,436,L,10466,2,14,4375
YZV,CYZV,CA-QC,Sept-├Äles,Sept-├Äles Airport,0,50.22330093,-66.26560211,180,M,6552,3,14,2016
FNA,GFLL,SL-N,Freetown,Lungi International Airport,0,8.616439819,-13.19550037,84,M,10498,1,12,2177
CAK,KCAK,US-OH,Akron,Akron Canton Regional Airport,0,40.91609955,-81.44219971,1228,M,7601,3,16,2635
XRY,LEJR,ES-AN,Jerez de la Forntera,Jerez Airport,0,36.74459839,-6.060110092,93,M,7546,1,9,2291
BDS,LIBR,IT-75,Brindisi,Brindisi ΓÇô Salento Airport,0,40.6576,17.947001,47,M,10000,2,14,2589
KTN,PAKT,US-AK,Ketchikan,Ketchikan International Airport,0,55.35559845,-131.7140045,89,M,9500,2,14,2383
OTZ,PAOT,US-AK,Kotzebue,Ralph Wien Memorial Airport,0,66.88469696,-162.598999,14,M,5900,2,11,2429
FMO,EDDG,DE-NW,M├╝nster,M├╝nster Osnabr├╝ck Airport,0,52.13460159,7.684830189,160,L,7119,1,9,3666
SKT,OPST,PK-PB,Sialkot,Sialkot Airport,0,32.53555679,74.3638916,837,L,11811,1,12,4583
PIK,EGPK,GB-SCT,Glasgow,Glasgow Prestwick Airport,0,55.50939941,-4.586669922,65,M,9800,2,14,2406
GSE,ESGP,SE-Q,Gothenburg,Gothenburg City Airport,0,57.77470016,11.87040043,59,M,6689,2,11,1946
PNS,KPNS,US-FL,Pensacola,Pensacola Regional Airport,0,30.47340012,-87.18659973,121,M,7004,2,12,1903
CLJ,LRCL,RO-CJ,Cluj-Napoca,Cluj-Napoca International Airport,0,46.78519821,23.68619919,1036,M,6693,2,11,2275
LIH,PHLI,US-HI,Lihue,Lihue Airport,0,21.97599983,-159.3390045,153,M,6500,2,11,2340
GYN,SBGO,BR-GO,Goi├ónia,Santa Genoveva Airport,0,-16.63199997,-49.22069931,2450,M,8202,1,10,2362
HSV,KHSV,US-AL,Huntsville,Huntsville International Carl T Jones Field,1,34.6371994,-86.77510071,629,L,12600,2,17,4166
JAN,KJAN,US-MS,Jackson,Jackson-Medgar Wiley Evers International Airport,1,32.31119919,-90.07589722,346,L,8500,2,14,4000
LFW,DXXX,TG-M,Lom├⌐,Lom├⌐-Tokoin Airport,0,6.165609837,1.254510045,72,M,9847,1,11,1916
SID,GVAC,CV-B,Espargos,Am├¡lcar Cabral International Airport,0,16.74139977,-22.94939995,177,M,10735,2,14,1916
JRO,HTKJ,TZ-26,Arusha,Kilimanjaro International Airport,0,-3.429409981,37.07450104,2932,M,11834,1,13,2333
FAT,KFAT,US-CA,Fresno,Fresno Yosemite International Airport,0,36.77619934,-119.7180023,336,M,9217,2,15,2208
MDT,KMDT,US-PA,Harrisburg,Harrisburg International Airport,0,40.19350052,-76.76339722,310,M,10001,1,12,2291
MJV,LELC,ES-MU,San Javier,San Javier Airport,0,37.77500153,-0.812389016,11,M,7546,3,14,2354
CLY,LFKC,FR-H,Calvi/Sainte-Catherine,Calvi-Sainte-Catherine Airport,0,42.5244444,8.7930556,209,M,7579,1,9,2166
IFN,OIFM,IR-04,Isfahan,Esfahan Shahid Beheshti International Airport,0,32.75080109,51.86130142,5059,M,14425,2,18,2104
JNU,PAJN,US-AK,Juneau,Juneau International Airport,0,58.35499954,-134.576004,21,M,8457,2,14,2333
KOA,PHKO,US-HI,Kailua/Kona,Ellison Onizuka Kona International At Keahole Airport,0,19.738783,-156.045603,47,M,11000,1,13,1895
MST,EHBK,NL-LI,Maastricht,Maastricht Aachen Airport,0,50.9117012,5.770140171,375,L,8202,1,10,3583
LXR,HELX,EG-KN,Luxor,Luxor International Airport,0,25.671,32.7066,294,L,9843,1,11,4750
TER,LPLA,PT-20,Praia da Vit├│ria,Lajes Airport,0,38.761799,-27.090799,180,L,10870,1,13,3541
TZX,LTCG,TR-61,Trabzon,Trabzon International Airport,0,40.99509811,39.78969955,104,L,8661,1,10,4458
CAE,KCAE,US-SC,Columbia,Columbia Metropolitan Airport,1,33.93880081,-81.11949921,236,L,8601,2,13,3708
CID,KCID,US-IA,Cedar Rapids,The Eastern Iowa Airport,1,41.88470078,-91.71080017,869,L,8601,2,14,3500
MSN,KMSN,US-WI,Madison,Dane County Regional Truax Field,1,43.13990021,-89.33750153,887,L,9005,3,17,3416
KUN,EYKA,LT-KU,Kaunas,Kaunas International Airport,0,54.96390152,24.08480072,256,M,10335,1,11,2354
RUN,FMEE,RE-U-A,St Denis,Roland Garros Airport,0,-20.88710022,55.51029968,66,M,10499,2,14,2333
WDH,FYWH,NA-KH,Windhoek,Hosea Kutako International Airport,0,-22.4799,17.4709,5640,M,15010,2,18,2104
TNG,GMTT,MA-TNG,Tangier,Ibn Batouta Airport,0,35.72689819,-5.916890144,62,M,11483,2,15,1770
WIL,HKNW,KE-110,Nairobi,Nairobi Wilson Airport,0,-1.321720004,36.81480026,5536,M,5052,2,9,2270
REU,LERS,ES-CT,Reus,Reus Air Base,0,41.1473999,1.167170048,233,M,8054,2,12,1791
SDR,LEXJ,ES-S,Santander,Santander Airport,0,43.42710114,-3.820009947,16,M,7612,1,9,1958
GRZ,LOWG,AT-6,Graz,Graz Airport,0,46.99110031,15.43959999,1115,M,9842,3,16,1750
BND,OIKB,IR-23,Bandar Abbas,Bandar Abbas International Airport,0,27.21829987,56.37779999,22,M,12008,2,15,2000
RAO,SBRP,BR-SP,Ribeir├úo Preto,Leite Lopes Airport,0,-21.13638878,-47.77666855,1806,M,6890,1,9,1875
MMX,ESMS,SE-M,Malm├╢,Malm├╢ Sturup Airport,1,55.53630536,13.37619781,236,L,9186,2,13,4416
CHA,KCHA,US-TN,Chattanooga,Lovell Field,1,35.03530121,-85.20379639,683,L,7400,2,13,3333
FWA,KFWA,US-IN,Fort Wayne,Fort Wayne International Airport,1,40.97850037,-85.19509888,814,L,12000,3,19,4083
TGD,LYPG,ME-16,Podgorica,Podgorica Airport,1,42.359402,19.2519,141,L,8202,2,12,3583
YFB,CYFB,CA-NU,Iqaluit,Iqaluit Airport,0,63.756402,-68.555801,110,M,8605,1,11,1958
YXL,CYXL,CA-ON,Sioux Lookout,Sioux Lookout Airport,0,50.11389923,-91.90529633,1258,M,5300,2,10,2166
GCI,EGJB,GG-U-A,Saint Peter Port,Guernsey Airport,0,49.43500137,-2.601969957,336,M,4800,1,7,1937
PNR,FCPP,CG-5,Pointe Noire,Pointe Noire Airport,0,-4.816030025,11.88659954,55,M,8530,1,10,1666
FEZ,GMFF,MA-FES,Fes,Sa├»ss Airport,0,33.9272995,-4.97796011,1900,M,10499,1,11,2000
NDR,GMMW,MA-NAD,Nador,Nador International Airport,0,34.98880005,-3.028209925,574,M,9842,1,10,2291
CKY,GUCY,GN-C,Conakry,Conakry International Airport,0,9.57689,-13.612,72,M,10826,1,12,1687
BUR,KBUR,US-CA,Burbank,Bob Hope Airport,0,34.20069885,-118.3590012,778,M,6886,2,12,1854
LGB,KLGB,US-CA,Long Beach,Long Beach /Daugherty Field/ Airport,0,33.81769943,-118.1520004,60,M,10000,5,22,2125
LEI,LEAM,ES-AN,Almer├¡a,Almer├¡a International Airport,0,36.84389877,-2.370100021,70,M,10499,1,11,2041
TGU,MHTG,HN-FM,Tegucigalpa,Toncont├¡n International Airport,0,14.06089973,-87.21720123,3294,M,6112,1,8,1916
KLO,RPVK,PH-AKL,Kalibo,Kalibo International Airport,0,11.67940044,122.3759995,14,M,7175,1,8,1916
ASU,SGAS,PY-11,Asunci├│n,Silvio Pettirossi International Airport,0,-25.23999977,-57.52000046,292,M,10997,1,13,1854
DSA,EGCN,GB-ENG,Doncaster,Robin Hood Doncaster Sheffield Airport,0,53.48053781,-1.010656357,55,L,9491,1,11,4666
VAR,LBWN,BG-03,Varna,Varna Airport,0,43.232101,27.8251,230,L,8202,1,10,4166
GEG,KGEG,US-WA,Spokane,Spokane International Airport,1,47.61989975,-117.5339966,2376,L,11002,2,16,4125
MLI,KMLI,US-IL,Moline,Quad City International Airport,1,41.44850159,-90.50749969,590,L,10002,3,17,3750
PIA,KPIA,US-IL,Peoria,General Wayne A. Downing Peoria International Airport,1,40.66419983,-89.69329834,660,L,10104,2,15,3875
ROA,KROA,US-VA,Roanoke,RoanokeΓÇôBlacksburg Regional Airport,1,37.3255,-79.975403,1175,L,6800,2,12,3625
TLH,KTLH,US-FL,Tallahassee,Tallahassee Regional Airport,1,30.39649963,-84.35030365,81,L,8000,2,13,4375
TBZ,OITT,IR-01,Tabriz,Tabriz International Airport,1,38.13389969,46.23500061,4459,L,11825,2,15,3500
NIM,DRRN,NE-8,Niamey,Diori Hamani International Airport,0,13.48149967,2.183609962,732,M,9843,3,16,1791
NSI,FKYS,CM-CE,Yaound├⌐,Yaound├⌐ Nsimalen International Airport,0,3.722559929,11.5532999,2278,M,11155,1,12,1729
MPM,FQMA,MZ-MPM,Maputo,Maputo Airport,0,-25.92079926,32.57260132,145,M,12008,2,16,2166
RAI,GVNP,CV-S,Praia,Praia International Airport,0,14.92450047,-23.49349976,230,M,6876,3,13,1895
ISP,KISP,US-NY,Islip,Long Island Mac Arthur Airport,0,40.79520035,-73.10019684,99,M,7006,4,18,2312
OVD,LEAS,ES-O,Ran├│n,Asturias Airport,0,43.56359863,-6.034619808,416,M,7218,1,9,2000
BES,LFRB,FR-E,Brest/Guipavas,Brest Bretagne Airport,0,48.44789886,-4.418540001,325,M,10171,2,14,1916
NGS,RJFU,JP-42,Nagasaki,Nagasaki Airport,0,32.91690063,129.9140015,15,M,9840,2,14,2062
KMQ,RJNK,JP-17,Kanazawa,Komatsu Airport,0,36.39459991,136.4069977,36,M,8876,2,13,1916
HIJ,RJOA,JP-34,Hiroshima,Hiroshima Airport,0,34.43610001,132.9190063,1088,M,9842,1,11,2312
CGR,SBCG,BR-MS,Campo Grande,Campo Grande Airport,0,-20.46870041,-54.67250061,1833,M,8530,1,10,2166
YQR,CYQR,CA-SK,Regina,Regina International Airport,0,50.43190002,-104.6660004,1894,M,7900,2,13,2145
YWK,CYWK,CA-NL,Wabush,Wabush Airport,0,52.9219017,-66.86440277,1808,M,6002,1,8,2125
CZL,DABC,DZ-25,Constantine,Mohamed Boudiaf International Airport,0,36.27600098,6.620389938,2265,M,9843,2,13,1770
ROB,GLRB,LR-MG,Monrovia,Roberts International Airport,0,6.233789921,-10.36229992,31,M,11000,1,12,1895
EYW,KEYW,US-FL,Key West,Key West International Airport,0,24.55610085,-81.75959778,3,M,4801,1,8,1895
ZTH,LGZA,GR-21,Zakynthos Island,Dionysios Solomos Airport,0,37.75090027,20.88430023,15,M,7310,1,9,2354
POP,MDPP,DO-18,Puerto Plata,Gregorio Luperon International Airport,0,19.75790024,-70.56999969,15,M,10108,1,11,2312
CUL,MMCL,MX-SIN,Culiac├ín,Bachigualato Federal International Airport,0,24.76449966,-107.4749985,108,M,7546,1,9,2270
CUU,MMCU,MX-CHH,Chihuahua,General Roberto Fierro Villalobos International Airport,0,28.70289993,-105.9649963,4462,M,8530,3,15,2229
CZM,MMCZ,MX-ROO,Cozumel,Cozumel International Airport,0,20.5223999,-86.92559814,15,M,10165,2,14,2250
VER,MMVR,MX-VER,Veracruz,General Heriberto Jara International Airport,0,19.14590073,-96.18730164,90,M,7874,2,12,2312
KIH,OIBK,IR-23,Kish Island,Kish International Airport,0,26.52619934,53.98020172,101,M,12004,2,15,1791
KIJ,RJSN,JP-15,Niigata,Niigata Airport,0,37.95589828,139.1210022,29,M,8200,2,12,2250
SLZ,SBSL,BR-MA,S├úo Lu├¡s,Marechal Cunha Machado International Airport,0,-2.58536005,-44.23410034,178,M,7828,2,12,2062
VIX,SBVT,BR-ES,Vit├│ria,Eurico de Aguiar Salles Airport,0,-20.25805664,-40.2863884,11,M,5741,1,8,1708
MBA,HKMO,KE-300,Mombasa,Mombasa Moi International Airport,1,-4.034830093,39.59420013,200,L,10991,2,15,3833
SGF,KSGF,US-MO,Springfield,Springfield Branson National Airport,1,37.24570084,-93.38860321,1268,L,8000,2,13,4458
BGW,ORBI,IQ-BG,Baghdad,Baghdad International Airport,1,33.26250076,44.23460007,114,L,13124,2,18,3958
BGR,KBGR,US-ME,Bangor,Bangor International Airport,0,44.80739975,-68.82810211,192,L,11440,1,14,4083
BSR,ORMM,IQ-BA,Basrah,Basrah International Airport,0,30.54910088,47.66210175,11,L,13124,1,14,4083
YLW,CYLW,CA-BC,Kelowna,Kelowna International Airport,0,49.95610046,-119.3779984,1421,M,8900,1,11,1875
YXE,CYXE,CA-SK,Saskatoon,Saskatoon John G. Diefenbaker International Airport,0,52.17079926,-106.6999969,1653,M,8300,2,13,2104
YYR,CYYR,CA-NL,Goose Bay,Goose Bay Airport,0,53.31919861,-60.42580032,160,M,11046,2,17,2208
MIR,DTMB,TN-52,Monastir,Monastir Habib Bourguiba International Airport,0,35.7580986,10.75469971,9,M,9678,1,11,2062
NOC,EIKN,IE-MO,Charleston,Ireland West Knock Airport,0,53.91030121,-8.818490028,665,M,7546,1,9,1750
DZA,FMCZ,YT-U-A,Dzaoudzi,Dzaoudzi Pamandzi International Airport,0,-12.8046999,45.28110123,23,M,6330,1,8,1666
PUY,LDPL,HR-18,Pula,Pula Airport,0,44.89350128,13.9222002,274,M,9678,1,11,1729
JTR,LGSR,GR-82,Santorini Island,Santorini Airport,0,36.39920044,25.47929955,127,M,6972,2,11,1979
RTB,MHRO,HN-IB,Roatan Island,Juan Manuel Galvez International Airport,0,16.316799,-86.523003,39,M,7349,1,9,2062
MID,MMMD,MX-YUC,M├⌐rida,Licenciado Manuel Crescencio Rejon Int Airport,0,20.93700027,-89.65769959,38,M,10499,2,14,2395
MZT,MMMZ,MX-SIN,Mazatl├ín,General Rafael Buelna International Airport,0,23.16139984,-106.2659988,38,M,8858,1,10,1750
MGA,MNMG,NI-MN,Managua,Augusto C. Sandino (Managua) International Airport,0,12.14150047,-86.16819763,194,M,8012,1,10,2145
FPO,MYGF,BS-FP,Freeport,Grand Bahama International Airport,0,26.55870056,-78.69560242,7,M,11019,1,12,1666
AHB,OEAB,SA-14,Abha,Abha Regional Airport,0,18.24040031,42.65660095,6858,M,10991,1,12,2125
STM,SBSN,BR-PA,Santar├⌐m,Maestro Wilson Fonseca Airport,0,-2.424721956,-54.78583145,198,M,7874,1,9,1791
UDI,SBUL,BR-MG,Uberl├óndia,Ten. Cel. Aviador C├⌐sar Bombonato Airport,0,-18.88361168,-48.22527695,3094,M,6398,1,8,2145
YYJ,CYYJ,CA-BC,Victoria,Victoria International Airport,1,48.64690018,-123.4260025,63,L,7000,3,16,3541
COS,KCOS,US-CO,Colorado Springs,City of Colorado Springs Municipal Airport,1,38.80580139,-104.7009964,6187,L,13501,3,21,4708
SRQ,KSRQ,US-FL,Sarasota/Bradenton,Sarasota Bradenton International Airport,1,27.39539909,-82.55439758,30,L,9500,2,15,4041
CRK,RPLC,PH-PAM,Angeles/Mabalacat,Diosdado Macapagal International Airport,1,15.186,120.559998,484,L,10499,2,14,4500
YTZ,CYTZ,CA-ON,Toronto,Billy Bishop Toronto City Centre Airport,0,43.627499,-79.396202,252,M,3988,3,12,1916
SEN,EGMC,GB-ENG,Southend,Southend Airport,0,51.57139969,0.695555985,49,M,6089,1,8,2041
SSG,FGSL,GQ-BN,Malabo,Malabo Airport,0,3.755270004,8.708720207,76,M,9647,1,11,2395
ISG,ISG,JP-47,Ishigaki,New Ishigaki Airport,0,24.396389,124.245,102,M,6562,1,7,2250
EUG,KEUG,US-OR,Eugene,Mahlon Sweet Field,0,44.12459946,-123.211998,374,M,8009,3,16,1979
FAR,KFAR,US-ND,Fargo,Hector International Airport,0,46.92070007,-96.81580353,902,M,9000,3,16,1958
FNT,KFNT,US-MI,Flint,Bishop International Airport,0,42.9654007,-83.74359894,782,M,7849,2,13,2250
TTN,KTTN,US-NJ,Trenton,Trenton Mercer Airport,0,40.27669907,-74.81349945,213,M,6006,2,12,1812
ECN,LCEN,CY-02,Nicosia,Ercan International Airport,0,35.15470123,33.49610138,404,M,9039,1,11,1812
BIQ,LFBZ,FR-B,Biarritz/Anglet/Bayonne,Biarritz-Anglet-Bayonne Airport,0,43.4683333,-1.5311111,245,M,7382,1,9,1687
FSC,LFKF,FR-H,Figari Sud-Corse,Figari Sud-Corse Airport,0,41.50059891,9.097780228,87,M,8136,1,10,1729
BJX,MMLO,MX-GUA,Silao,Del Baj├¡o International Airport,0,20.9935,-101.481003,5956,M,11483,1,12,1708
MHH,MYAM,BS-MH,Marsh Harbour,Leonard M Thompson International Airport,0,26.5114,-77.083503,6,M,4998,1,7,2333
UET,OPQT,PK-BA,Quetta,Quetta International Airport,0,30.25139999,66.93779755,5267,M,12000,2,15,1958
CGY,PH-0001,PH-MSR,Cagayan de Oro City,Laguindingan Airport,0,8.612203,124.456496,190,L,6890,1,8,3791
NKC,GQNO,MR-NKC,Nouakchott,NouakchottΓÇôOumtounsy International Airport,1,18.31,-15.9697222,9,L,11155,2,15,3583
BIL,KBIL,US-MT,Billings,Billings Logan International Airport,1,45.80770111,-108.5429993,3652,L,10518,3,18,3416
BMI,KBMI,US-IL,Bloomington/Normal,Central Illinois Regional Airport at Bloomington-Normal,1,40.47710037,-88.91590118,871,L,8000,3,16,3541
RAB,AYTK,PG-EBR,Tokua,Tokua Airport,0,-4.340459824,152.3800049,32,M,5643,1,7,1812
YQT,CYQT,CA-ON,Thunder Bay,Thunder Bay Airport,0,48.37189865,-89.32389832,653,M,7318,2,12,1895
FDH,EDNY,DE-BW,Friedrichshafen,Friedrichshafen Airport,0,47.67129898,9.511489868,1367,M,7729,1,10,2187
AES,ENAL,NO-15,├àlesund,├àlesund Airport,0,62.5625,6.119699955,69,M,7592,1,9,2062
SEZ,FSIA,SC-20,Mahe Island,Seychelles International Airport,0,-4.674339771,55.52180099,10,M,9800,1,11,1750
BJL,GBYD,GM-W,Banjul,Banjul International Airport,0,13.3380003,-16.6522007,95,M,11811,1,13,1750
BJM,HBBA,BI-BJ,Bujumbura,Bujumbura International Airport,0,-3.324019909,29.31850052,2582,M,11811,2,15,2104
ABE,KABE,US-PA,Allentown,Lehigh Valley International Airport,0,40.65209961,-75.44080353,393,M,7600,2,13,2145
BTV,KBTV,US-VT,Burlington,Burlington International Airport,0,44.47190094,-73.15329742,335,M,8320,2,14,2166
CHO,KCHO,US-VA,Charlottesville,Charlottesville Albemarle Airport,0,38.1385994,-78.45290375,639,M,6001,1,9,1812
FSD,KFSD,US-SD,Sioux Falls,Joe Foss Field Airport,0,43.58200073,-96.74189758,1429,M,8999,3,16,2312
ILM,KILM,US-NC,Wilmington,Wilmington International Airport,0,34.27059937,-77.90260315,32,M,8016,2,13,1770
RNS,LFRN,FR-E,Rennes/Saint-Jacques,Rennes-Saint-Jacques Airport,0,48.06949997,-1.734789968,124,M,6890,2,11,2291
JMK,LGMK,GR-82,Mykonos Island,Mikonos Airport,0,37.43510056,25.34810066,405,M,6244,1,8,2104
TSR,LRTR,RO-TM,Timi┼ƒoara,Timi┼ƒoara Traian Vuia Airport,0,45.80989838,21.33790016,348,M,11483,1,12,2354
TLC,MMTO,MX-MEX,Toluca,Licenciado Adolfo Lopez Mateos International Airport,0,19.33709908,-99.56600189,8466,M,13780,1,14,1750
VSA,MMVA,MX-TAB,Villahermosa,Carlos Rovirosa P├⌐rez International Airport,0,17.99699974,-92.81739807,46,M,7218,1,9,1770
NOU,NWWW,NC-U-A,Noum├⌐a,La Tontouta International Airport,0,-22.01460075,166.2129974,52,M,10663,1,12,1770
TIF,OETF,SA-02,TaΓÇÖif,TaΓÇÖif Regional Airport,0,21.483001,40.543442,4848,M,12254,2,16,1687
OKJ,RJOB,JP-33,Okayama City,Okayama Airport,0,34.75690079,133.8549957,806,M,9843,1,11,1833
COR,SACO,AR-X,Cordoba,Ingeniero Ambrosio Taravella Airport,0,-31.323601,-64.208,1604,M,10499,2,14,2166
AJU,SBAR,BR-SE,Aracaju,Santa Maria Airport,0,-10.98400021,-37.07030106,23,M,7218,1,8,1833
PLU,SBBH,BR-MG,Belo Horizonte,Pampulha - Carlos Drummond de Andrade Airport,0,-19.8512001,-43.95059967,2589,M,8333,1,10,1791
MCZ,SBMO,BR-AL,Macei├│,Zumbi dos Palmares Airport,0,-9.510809898,-35.79169846,387,M,8537,1,10,1833
SBN,KSBN,US-IN,South Bend,South Bend Regional Airport,1,41.70869827,-86.31729889,799,L,8412,3,16,4750
YMM,CYMM,CA-AB,Fort McMurray,Fort McMurray Airport,0,56.65330124,-111.2220001,1211,M,7503,1,10,1708
TMP,EFTP,FI-LS,Tampere / Pirkkala,Tampere-Pirkkala Airport,0,61.41410065,23.60440063,390,M,8858,1,10,1854
HAU,ENHD,NO-11,Karm├╕y,Haugesund Airport,0,59.34529877,5.208360195,86,M,6957,1,8,2041
LLW,FWKI,MW-LI,Lilongwe,Lilongwe International Airport,0,-13.7894001,33.78099823,4035,M,11614,1,12,2312
BVC,GVBA,CV-B,Rabil,Rabil Airport,0,16.1364994,-22.88890076,69,M,6890,1,8,2208
GNV,KGNV,US-FL,Gainesville,Gainesville Regional Airport,0,29.69009972,-82.27179718,152,M,7504,2,13,1895
LCG,LECO,ES-GA,Culleredo,A Coru├▒a Airport,0,43.302101,-8.37726,326,M,6358,1,8,2229
LNZ,LOWL,AT-4,Linz,Linz H├╢rsching Airport,0,48.2332,14.1875,980,M,9843,2,13,2270
IAS,LRIA,RO-IS,Ia┼ƒi,Ia┼ƒi Airport,0,47.17850113,27.62059975,397,M,5841,1,8,2187
BRN,LSZB,CH-BE,Bern,Bern Belp Airport,0,46.91410065,7.497149944,1674,M,5676,3,13,2229
CJS,MMCS,MX-CHH,Ciudad Ju├írez,Abraham Gonz├ílez International Airport,0,31.63610077,-106.4290009,3904,M,8858,2,12,2208
SUV,NFNA,FJ-C,Nausori,Nausori International Airport,0,-18.04330063,178.5590057,17,M,6129,1,8,1875
ELQ,OEGS,SA-05,,Gassim Airport,0,26.30279922,43.7743988,2126,M,9843,1,11,2333
MUX,OPMT,PK-PB,Multan,Multan International Airport,0,30.20319939,71.4190979,403,M,9046,1,10,2229
RIY,OYRN,YE-HD,Riyan,Mukalla International Airport,0,14.66259956,49.375,54,M,9846,1,11,2020
ANI,PANI,US-AK,Aniak,Aniak Airport,0,61.58160019,-159.5429993,88,M,6000,2,10,1833
UKB,RJBE,JP-28,Kobe,Kobe Airport,0,34.63280106,135.223999,22,M,8202,1,10,2062
MYJ,RJOM,JP-38,Matsuyama,Matsuyama Airport,0,33.82720184,132.6999969,25,M,8200,1,10,2083
IGU,SBFI,BR-PR,Foz Do Igua├ºu,Cataratas International Airport,0,-25.60027885,-54.48500061,786,M,7201,1,9,1666
MAB,SBMA,BR-PA,Marab├í,Jo├úo Correa da Rocha Airport,0,-5.368589878,-49.13800049,357,M,6562,1,8,2291
LLA,ESPA,SE-BD,Lule├Ñ,Lule├Ñ Airport,0,65.54380035,22.12199974,65,L,10990,1,12,4333
MWX,RKJB,KR-46,Piseo-ri (Muan),Muan International Airport,0,34.991406,126.382814,35,L,9186,1,10,3625
NWI,EGSH,GB-ENG,Norwich,Norwich International Airport,1,52.67580032,1.282780051,117,L,6040,2,11,4250
AMA,KAMA,US-TX,Amarillo,Rick Husband Amarillo International Airport,1,35.219398,-101.706001,3607,L,13502,2,18,3750
LBB,KLBB,US-TX,Lubbock,Lubbock Preston Smith International Airport,1,33.663601,-101.822998,3282,L,11500,3,19,3500
VPS,KVPS,US-FL,Valparaiso,Destin-Ft Walton Beach Airport,1,30.4832,-86.525398,87,L,12005,2,17,4625
LAE,AYNZ,PG-MPL,Lae,Nadzab Airport,0,-6.569803,146.725977,239,M,8004,1,10,2104
PAD,EDLP,DE-NW,Paderborn,Paderborn Lippstadt Airport,0,51.61410141,8.616319656,699,M,7152,1,9,2270
IOM,EGNS,IM-U-A,Castletown,Isle of Man Airport,0,54.08330154,-4.623889923,52,M,5751,3,13,2291
KOI,EGPA,GB-SCT,Orkney Islands,Kirkwall Airport,0,58.95780182,-2.904999971,50,M,4685,3,11,2187
INV,EGPE,GB-SCT,Inverness,Inverness Airport,0,57.54249954,-4.047500134,31,M,6191,2,11,2145
KRS,ENCN,NO-10,Kjevik,Kristiansand Airport,0,58.204201,8.08537,57,M,6660,1,8,1833
RZE,EPRZ,PL-PK,Rzesz├│w,Rzesz├│w-Jasionka Airport,0,50.11000061,22.0189991,675,M,10499,2,13,1958
RBA,GMME,MA-RBA,Rabat,Rabat-Sal├⌐ Airport,0,34.051498,-6.75152,276,M,11483,1,12,1958
ZNZ,HTZA,TZ-07,Zanzibar,Abeid Amani Karume International Airport,0,-6.222020149,39.22489929,54,M,8077,1,9,1854
VGO,LEVX,ES-GA,Vigo,Vigo Airport,0,42.23180008,-8.62677002,856,M,7874,1,9,2395
EGC,LFBE,FR-B,Bergerac/Roumani├¿re,Bergerac-Roumani├¿re Airport,0,44.82529831,0.518611014,171,M,7234,1,9,2270
LIG,LFBL,FR-L,Limoges/Bellegarde,Limoges Airport,0,45.8628006,1.179440022,1300,M,8202,1,10,2208
PVK,LGPZ,GR-34,Preveza/Lefkada,Aktion National Airport,0,38.92549896,20.76530075,11,M,9419,1,11,2208
TRS,LIPQ,IT-36,Trieste,TriesteΓÇôFriuli Venezia Giulia Airport,0,45.827499,13.4722,39,M,9843,1,11,2062
TIV,LYTV,ME-19,Tivat,Tivat Airport,0,42.40470123,18.72330093,20,M,8208,1,9,1833
STI,MDST,DO-25,Santiago,Cibao International Airport,0,19.40609932,-70.60469818,565,M,8595,1,10,2187
HOG,MUHG,CU-11,Holguin,Frank Pais International Airport,0,20.78560066,-76.31510162,361,M,10624,1,12,2291
SON,NVSS,VU-SAM,Luganville,Santo Pekoa International Airport,0,-15.50500011,167.2200012,184,M,6523,1,8,1812
ZAH,OIZH,IR-13,Zahedan,Zahedan International Airport,0,29.47570038,60.90620041,4564,M,13993,2,17,1937
ADQ,PADQ,US-AK,Kodiak,Kodiak Airport,0,57.75,-152.4940033,78,M,7542,3,16,1687
KMI,RJFM,JP-45,Miyazaki,Miyazaki Airport,0,31.87719917,131.4490051,20,M,8200,1,10,1833
JPA,SBJP,BR-PB,Jo├úo Pessoa,Presidente Castro Pinto International Airport,0,-7.145833015,-34.94861221,217,M,8251,1,9,2312
LDB,SBLO,BR-PR,Londrina,Governador Jos├⌐ Richa Airport,0,-23.33359909,-51.13010025,1867,M,6890,1,8,1812
BPS,SBPS,BR-BA,Porto Seguro,Porto Seguro Airport,0,-16.43860054,-39.08089828,168,M,6562,1,8,2000
THE,SBTE,BR-PI,Teresina,Senador Petr├┤nio Portela Airport,0,-5.059939861,-42.82350159,219,M,7218,1,9,1708
ANF,SCFA,CL-AN,Antofagasta,Cerro Moreno Airport,0,-23.44449997,-70.44509888,455,M,8527,1,10,2125
ADZ,SKSP,CO-SAP,San Andr├⌐s,Gustavo Rojas Pinilla International Airport,0,12.5836,-81.7112,19,M,7808,1,10,2041
LGG,EBLG,BE-WLG,Li├¿ge,Li├¿ge Airport,1,50.63740158,5.443220139,659,L,12106,2,16,3875
GPT,KGPT,US-MS,Gulfport,Gulfport Biloxi International Airport,1,30.40730095,-89.07009888,28,L,9002,3,17,4041
MOB,KMOB,US-AL,Mobile,Mobile Regional Airport,1,30.69120026,-88.24279785,219,L,8521,2,14,4083
PHF,KPHF,US-VA,Newport News,Newport News Williamsburg International Airport,1,37.13190079,-76.49299622,42,L,8003,2,13,4208
GZT,LTAJ,TR-27,Gaziantep,Gaziantep International Airport,1,36.94720078,37.47869873,2315,L,9843,2,13,3416
CJJ,RKTU,KR-43,Cheongju,Cheongju International Airport/Cheongju Air Base (K-59/G-513),1,36.717008,127.498741,191,L,9000,2,14,3875
HGU,AYMH,PG-WHM,Mount Hagen,Mount Hagen Kagamuga Airport,0,-5.826789856,144.2960052,5388,M,7185,2,11,1791
YQM,CYQM,CA-NB,Moncton,Greater Moncton International Airport,0,46.11220169,-64.6785965,232,M,10001,2,14,2291
YVP,CYVP,CA-QC,Kuujjuaq,Kuujjuaq Airport,0,58.09609985,-68.42690277,129,M,6000,2,11,1729
YXS,CYXS,CA-BC,Prince George,Prince George Airport,0,53.88940048,-122.6790009,2267,M,11450,3,19,1833
SFA,DTTX,TN-61,Sfax,Sfax Thyna International Airport,0,34.7179985,10.69099998,85,M,9843,1,11,2000
ALF,ENAT,NO-20,Alta,Alta Airport,0,69.97609711,23.37170029,9,M,7165,1,8,1916
NLA,FLND,ZM-08,Ndola,Simon Mwansa Kapwepwe International Airport,0,-12.99810028,28.66489983,4167,M,8250,2,12,1854
HAH,FMCH,KM-G,Moroni,Prince Said Ibrahim International Airport,0,-11.5337,43.2719,93,M,9514,1,11,1854
FBM,FZQA,CD-KA,Lubumbashi,Lubumbashi International Airport,0,-11.59130001,27.53089905,4295,M,10623,1,11,1750
OUD,GMFO,MA-OUJ,Oujda,Angads Airport,0,34.78720093,-1.923990011,1535,M,9843,1,11,1895
MGQ,HCMM,SO-BN,Mogadishu,Aden Adde International Airport,0,2.01444006,45.30469894,29,M,10335,1,11,1895
ACY,KACY,US-NJ,Atlantic City,Atlantic City International Airport,0,39.45759964,-74.57720184,75,M,10000,2,15,1937
BLI,KBLI,US-WA,Bellingham,Bellingham International Airport,0,48.7928009,-122.538002,170,M,6701,1,9,2166
MRY,KMRY,US-CA,Monterey,Monterey Peninsula Airport,0,36.5870018,-121.8430023,257,M,7616,2,13,2333
LRH,LFBH,FR-T,La Rochelle/├Äle de R├⌐,La Rochelle-├Äle de R├⌐ Airport,0,46.17919922,-1.195279956,74,M,7398,1,9,2062
CCF,LFMK,FR-K,Carcassonne/Salvaza,Carcassonne Airport,0,43.2159996,2.306319952,433,M,6726,1,8,1708
KLX,LGKL,GR-17,Kalamata,Kalamata Airport,0,37.06829834,22.02549934,26,M,9260,1,10,1937
MJT,LGMT,GR-83,Mytilene,Mytilene International Airport,0,39.05670166,26.59830093,60,M,7894,1,9,2166
AOI,LIPY,IT-57,Ancona,Ancona Falconara Airport,0,43.616299,13.3623,49,M,9718,1,11,1958
LRM,MDLR,DO-12,La Romana,Casa De Campo International Airport,0,18.45070076,-68.91179657,240,M,9676,1,11,2375
LAP,MMLP,MX-BCS,La Paz,Manuel M├írquez de Le├│n International Airport,0,24.0727005,-110.3619995,69,M,8202,1,10,1729
MLM,MMMM,MX-MIC,Morelia,General Francisco J. Mujica International Airport,0,19.84989929,-101.0250015,6033,M,11155,1,12,1687
TRC,MMTC,MX-COA,Torre├│n,Francisco Sarabia International Airport,0,25.56830025,-103.4110031,3688,M,9022,2,13,2229
PAC,MPMG,PA-8,Albrook,Marcos A. Gelabert International Airport,0,8.973340034,-79.55560303,31,M,5906,1,8,2395
GGT,MYEF,BS-EX,George Town,Exuma International Airport,0,23.56259918,-75.87799835,9,M,7051,1,8,1750
RAS,OIGG,IR-19,Rasht,Sardar-e-Jangal Airport,0,37.323333,49.617778,-40,M,9571,1,10,1875
ISU,ORSU,IQ-SW,Sulaymaniyah,Sulaymaniyah International Airport,0,35.5617485,45.31673813,2494,M,11481,1,12,2166
SPN,PGSN,MP-U-A,Saipan Island,Saipan International Airport,0,15.11900043,145.7290039,215,M,8700,1,11,2104
ROR,PTRO,PW-004,Babelthuap Island,Babelthuap Airport,0,7.36731,134.544236,176,M,7200,1,8,2000
HKD,RJCH,JP-01,Hakodate,Hakodate Airport,0,41.77000046,140.8220062,151,M,9842,1,11,1937
ILO,RPVI,PH-ILI,Iloilo City,Iloilo International Airport,0,10.833017,122.493358,27,M,8202,1,9,1958
MDZ,SAME,AR-M,Mendoza,El Plumerillo Airport,0,-32.83169937,-68.79290009,2310,M,9301,1,11,2250
MGF,SBMG,BR-PR,Maring├í,Regional de Maring├í - S├¡lvio Nane Junior Airport,0,-23.4794445,-52.01222229,1788,M,6890,1,8,1750
PMC,SCTE,CL-LL,Puerto Montt,El Tepual Airport,0,-41.43889999,-73.09400177,294,M,8694,1,10,1875
BAQ,SKBQ,CO-ATL,Barranquilla,Ernesto Cortissoz International Airport,0,10.8896,-74.7808,98,M,9842,1,11,2062
GRJ,FAGG,ZA-WC,George,George Airport,0,-34.0056,22.378902,648,L,6562,1,8,4541
KNH,RCBS,TW-X-KM,Shang-I,Kinmen Airport,0,24.4279,118.359001,93,L,9865,1,11,3500
BTR,KBTR,US-LA,Baton Rouge,Baton Rouge Metropolitan,1,30.53319931,-91.14959717,70,L,7004,3,15,3791
GRB,KGRB,US-WI,Green Bay,Austin Straubel International Airport,1,44.48509979,-88.12960052,695,L,8201,3,16,4291
SHV,KSHV,US-LA,Shreveport,Shreveport Regional Airport,1,32.44660187,-93.82559967,258,L,8351,2,13,3750
ACA,MMAA,MX-GRO,Acapulco,General Juan N Alvarez International Airport,1,16.75709915,-99.7539978,16,L,10832,2,14,3708
GOH,BGGH,GL-U-A,Nuuk,Godthaab / Nuuk Airport,0,64.19090271,-51.67810059,283,M,3117,1,5,2166
AAE,DABB,DZ-36,Annaba,Rabah Bitat Airport,0,36.822201,7.809174,16,M,9843,2,13,1770
SCN,EDDR,DE-SL,Saarbr├╝cken,Saarbr├╝cken Airport,0,49.21459961,7.109509945,1058,M,6562,2,11,1729
BLK,EGNH,GB-ENG,Blackpool,Blackpool International Airport,0,53.77170181,-3.028609991,34,M,6132,3,13,2250
EVE,ENEV,NO-18,Evenes,Harstad/Narvik Airport; Evenes,0,68.49130249,16.67810059,84,M,9236,1,10,2291
PLZ,FAPE,ZA-EC,Port Elizabeth,Port Elizabeth Airport,0,-33.98490143,25.61730003,226,M,6496,3,13,1812
GBE,FBSK,BW-SE,Gaborone,Sir Seretse Khama International Airport,0,-24.55520058,25.91819954,3299,M,9843,1,11,2229
APL,FQNP,MZ-N,Nampula,Nampula Airport,0,-15.10560036,39.28179932,1444,M,6562,2,10,2020
NDJ,FTTJ,TD-CB,N'Djamena,N'Djamena International Airport,0,12.13370037,15.0340004,968,M,9186,1,10,2375
AVP,KAVP,US-PA,Wilkes-Barre/Scranton,Wilkes Barre Scranton International Airport,0,41.33850098,-75.7233963,962,M,7501,2,12,1750
EVV,KEVV,US-IN,Evansville,Evansville Regional Airport,0,38.03699875,-87.53240204,418,M,8021,3,16,1791
MFR,KMFR,US-OR,Medford,Rogue Valley International Medford Airport,0,42.37419891,-122.8730011,1335,M,8800,2,14,2375
GRX,LEGR,ES-AN,Granada,Federico Garcia Lorca Airport,0,37.18870163,-3.777359962,1860,M,9514,1,10,1812
CFE,LFLC,FR-C,Clermont-Ferrand/Auvergne,Clermont-Ferrand Auvergne Airport,0,45.7867012,3.169169903,1090,M,9885,3,17,2270
BZR,LFMU,FR-K,B├⌐ziers/Vias,B├⌐ziers-Vias Airport,0,43.32350159,3.353899956,56,M,5971,1,8,2062
SMI,LGSM,GR-84,Samos Island,Samos Airport,0,37.68999863,26.9116993,19,M,6706,1,8,1770
PSR,LIBP,IT-65,Pescara,Pescara International Airport,0,42.431702,14.1811,48,M,7933,1,9,1833
HTY,LTDA,TR-31,Hatay,Hatay Airport,0,36.36277771,36.28222275,269,M,9843,1,10,1895
AGU,MMAS,MX-AGU,Aguascalientes,Jes├║s Ter├ín Paredo International Airport,0,21.705601,-102.318001,6112,M,9843,2,13,2208
ZIH,MMZH,MX-GRO,Ixtapa,Ixtapa Zihuatanejo International Airport,0,17.60160065,-101.4609985,26,M,8202,1,9,2187
TUU,OETB,SA-07,Tabuk,Tabuk Airport,0,28.3654,36.6189,2551,M,10991,2,15,2125
YNB,OEYN,SA-03,Yanbu,Prince Abdulmohsin Bin Abdulaziz Airport,0,24.144199,38.0634,26,M,10532,1,12,2041
OIT,RJFO,JP-44,Oita,Oita Airport,0,33.47940063,131.7369995,19,M,9840,1,11,1854
KMJ,RJFT,JP-43,Kumamoto,Kumamoto Airport,0,32.83729935,130.8549957,642,M,9840,1,12,2354
TOY,RJNT,JP-16,Toyama,Toyama Airport,0,36.64830017,137.1880035,95,M,6562,1,8,2291
PPS,RPVP,PH-PLW,Puerto Princesa City,Puerto Princesa Airport,0,9.742119789,118.7590027,71,M,8530,1,10,2229
IOS,SBIL,BR-BA,Ilh├⌐us,Bahia - Jorge Amado Airport,0,-14.81599998,-39.03319931,15,M,5174,1,7,2250
PVH,SBPV,BR-RO,Porto Velho,Governador Jorge Teixeira de Oliveira Airport,0,-8.709289551,-63.90230179,290,M,7874,1,9,1729
IQQ,SCDA,CL-TA,Iquique,Diego Aracena Airport,0,-20.53520012,-70.1812973,155,M,10991,1,12,2312
MAG,AYMD,PG-MPM,Madang,Madang Airport,0,-5.207079887,145.7890015,20,M,5174,1,7,2125
SFJ,BGSF,GL-U-A,Kangerlussuaq,Kangerlussuaq Airport,0,67.0122219,-50.71160316,165,M,9219,1,10,2020
YEV,CYEV,CA-NT,Inuvik,Inuvik Mike Zubko Airport,0,68.30419922,-133.4830017,224,M,6000,1,9,2312
YYQ,CYYQ,CA-MB,Churchill,Churchill Airport,0,58.73920059,-94.06500244,94,M,9200,2,13,1812
YYY,CYYY,CA-QC,Mont-Joli,Mont Joli Airport,0,48.60860062,-68.20809937,172,M,6000,2,11,1895
QSF,DAAS,DZ-19,S├⌐tif,Ain Arnat Airport,0,36.17810059,5.32449007,3360,M,9498,1,10,2062
PHC,DNPO,NG-RI,Port Harcourt,Port Harcourt International Airport,0,5.015490055,6.949590206,87,M,9846,1,11,2333
GWT,EDXW,DE-SH,Westerland,Westerland Sylt Airport,0,54.91320038,8.340470314,51,M,6955,2,11,2104
TKU,EFTU,FI-LS,Turku,Turku Airport,0,60.51409912,22.26280022,161,M,8202,1,9,2250
AAR,EKAH,DK-82,Aarhus,Aarhus Airport,0,56.29999924,10.61900043,82,M,9111,2,13,2104
UME,ESNU,SE-AC,Ume├Ñ,Ume├Ñ Airport,0,63.79180145,20.28280067,24,M,7551,1,9,2395
VBY,ESSV,SE-I,Visby,Visby Airport,0,57.66279984,18.34620094,164,M,6562,2,10,2000
POL,FQPB,MZ-P,Pemba / Porto Amelia,Pemba Airport,0,-12.99176216,40.52401352,331,M,5905,2,10,2333
SPC,GCLA,ES-CN,Sta Cruz de la Palma; La Palma Island,La Palma Airport,0,28.62649918,-17.75559998,107,M,7218,1,9,2312
BZN,KBZN,US-MT,Bozeman,Gallatin Field,0,45.77750015,-111.1529999,4473,M,9003,3,16,2062
FAY,KFAY,US-NC,Fayetteville,Fayetteville Regional Grannis Field,0,34.99119949,-78.88030243,189,M,7712,2,12,2354
GJT,KGJT,US-CO,Grand Junction,Grand Junction Regional Airport,0,39.12239838,-108.5270004,4858,M,10501,2,15,1895
LAN,KLAN,US-MI,Lansing,Capital City Airport,0,42.77870178,-84.58740234,861,M,7251,3,15,1958
MAF,KMAF,US-TX,Midland,Midland International Airport,0,31.94249916,-102.2020035,2871,M,9501,4,19,1770
PIR,KPIR,US-SD,Pierre,Pierre Regional Airport,0,44.38270187,-100.2860031,1744,M,6900,2,12,1958
PSC,KPSC,US-WA,Pasco,Tri Cities Airport,0,46.26470184,-119.1190033,410,M,7711,3,15,1666
RAP,KRAP,US-SD,Rapid City,Rapid City Regional Airport,0,44.04529953,-103.0569992,3204,M,8701,2,14,2125
RDM,KRDM,US-OR,Redmond,Roberts Field,0,44.2541008,-121.1500015,3080,M,7040,2,12,2083
SBA,KSBA,US-CA,Santa Barbara,Santa Barbara Municipal Airport,0,34.42620087,-119.8399963,13,M,6052,3,14,1791
ZAZ,LEZG,ES-AR,Zaragoza,Zaragoza Air Base,0,41.66619873,-1.04155004,863,M,12198,2,15,2187
INN,LOWI,AT-7,Innsbruck,Innsbruck Airport,0,47.260201,11.344,1907,M,6562,1,9,2208
LCE,MHLC,HN-AT,La Ceiba,Goloson International Airport,0,15.7425,-86.852997,39,M,9875,1,11,1937
REX,MMRX,MX-TAM,Reynosa,General Lucio Blanco International Airport,0,26.0089,-98.2285,139,M,6243,1,7,2291
SLP,MMSP,MX-SLP,San Luis Potos├¡,Ponciano Arriaga International Airport,0,22.25429916,-100.9309998,6035,M,9867,2,13,1729
TGZ,MMTG,MX-CHP,Tuxtla Guti├⌐rrez,Angel Albino Corzo International Airport,0,16.56360054,-93.02249908,1499,M,8202,3,14,1666
ELH,MYEH,BS-HI,North Eleuthera,North Eleuthera Airport,0,25.47489929,-76.6835022,13,M,6020,1,8,1895
GEA,NWWM,NC-U-A,Noum├⌐a,Noum├⌐a Magenta Airport,0,-22.25830078,166.4730072,10,M,4101,1,7,1833
YGJ,RJOH,JP-32,Yonago,Miho Yonago Airport,0,35.49219894,133.2359924,20,M,8202,1,10,1708
TAK,RJOT,JP-37,Takamatsu,Takamatsu Airport,0,34.21419907,134.0160065,607,M,8200,1,10,1979
AXT,RJSK,JP-05,Akita,Akita Airport,0,39.61560059,140.2189941,313,M,8200,1,9,1958
SJP,SBSR,BR-SP,S├úo Jos├⌐ Do Rio Preto,Prof. Eribelto Manoel Reino State Airport,0,-20.8166008,-49.40650177,1784,M,5381,1,7,1937
CBB,SLCB,BO-C,Cochabamba,Jorge Wilsterman International Airport,0,-17.42110062,-66.17710114,8360,M,12460,2,16,2354
KAN,DNKN,NG-KN,Kano,Mallam Aminu International Airport,1,12.0476,8.52462,1562,L,10831,2,14,4791
AGS,KAGS,US-GA,Augusta,Augusta Regional At Bush Field,1,33.36989975,-81.96450043,144,L,8001,2,13,4291
MGM,KMGM,US-AL,Montgomery,Montgomery Regional (Dannelly Field) Airport,1,32.30059814,-86.39399719,221,L,9010,2,15,3708
TRI,KTRI,US-TN,Bristol/Johnson/Kingsport,Tri-Cities Regional TN/VA Airport,1,36.475201,-82.407401,1519,L,8030,2,13,3791
YDF,CYDF,CA-NL,Deer Lake,Deer Lake Airport,0,49.21080017,-57.39139938,72,M,8005,1,10,2062
YEK,CYEK,CA-NU,Arviat,Arviat Airport,0,61.09420013,-94.07080078,32,M,4000,1,6,2000
YGW,CYGW,CA-QC,Kuujjuarapik,Kuujjuarapik Airport,0,55.2818985,-77.76529694,34,M,5052,1,6,1750
YQQ,CYQQ,CA-BC,Comox,Comox Airport,0,49.71080017,-124.887001,84,M,10000,2,15,2250
YRL,CYRL,CA-ON,Red Lake,Red Lake Airport,0,51.06689835,-93.79309845,1265,M,5001,1,7,2083
YVO,CYVO,CA-QC,Val-d'Or,Val-d'Or Airport,0,48.05329895,-77.78279877,1107,M,10000,1,11,2395
HFT,ENHF,NO-20,Hammerfest,Hammerfest Airport,0,70.67970276,23.66860008,266,M,2894,1,4,2395
KSU,ENKB,NO-15,Kvernberget,Kristiansund Airport (Kvernberget),0,63.11180115,7.824520111,204,M,6037,1,7,2291
KKN,ENKR,NO-20,Kirkenes,Kirkenes Airport (H├╕ybuktmoen),0,69.72579956,29.8913002,283,M,6939,1,8,2041
MOL,ENML,NO-15,├àr├╕,Molde Airport,0,62.74470139,7.262499809,10,M,6922,1,8,2333
VDS,ENVD,NO-20,Vads├╕,Vads├╕ Airport,0,70.06529999,29.84469986,127,M,3271,1,5,2125
SZZ,EPSC,PL-ZP,Goleniow,"Szczecin-Goleni├│w ""Solidarno┼¢─ç"" Airport",0,53.58470154,14.90219975,154,M,8202,1,9,2291
VXO,ESMX,SE-G,V├ñxj├╢,V├ñxj├╢ Kronoberg Airport,0,56.92910004,14.72799969,610,M,6900,1,8,2104
MUB,FBMN,BW-NW,Maun,Maun Airport,0,-19.97260094,23.43110085,3093,M,6562,1,8,1958
LVI,FLLI,ZM-07,Livingstone,Livingstone Airport,0,-17.82180023,25.8227005,3302,M,7520,2,11,1666
TMM,FMMT,MG-A,,Toamasina Airport,0,-18.10950089,49.39250183,22,M,7218,1,9,2312
BEW,FQBR,MZ-S,Beira,Beira Airport,0,-19.79640007,34.9076004,33,M,7874,3,14,1666
TET,FQTT,MZ-T,Tete,Chingozi Airport,0,-16.10479927,33.64020157,525,M,8225,1,9,1666
VFA,FVFA,ZW-MN,Victoria Falls,Victoria Falls International Airport,0,-18.09589958,25.8390007,3490,M,7708,1,9,2291
OXB,GGOV,GW-BS,Bissau,Osvaldo Vieira International Airport,0,11.89480019,-15.65369987,129,M,10499,1,11,2062
HGA,HCMH,SO-WO,Hargeisa,Egal International Airport,0,9.518170357,44.08879852,4423,M,8000,1,9,2250
BBO,HCMI,SO-WO,Berbera,Berbera Airport,0,10.38920021,44.94110107,30,M,13582,1,14,2020
ASM,HHAS,ER-SK,Asmara,Asmara International Airport,0,15.29189968,38.91070175,7661,M,9842,2,13,1666
ECP,KECP,US-FL,Panama City Beach,Northwest Florida Beaches International Airport,0,30.357106,-85.795414,69,M,10000,1,11,2083
GTF,KGTF,US-MT,Great Falls,Great Falls International Airport,0,47.48199844,-111.3710022,3680,M,10502,3,18,1916
HRL,KHRL,US-TX,Harlingen,Valley International Airport,0,26.22850037,-97.65440369,36,M,8301,3,16,2104
MSO,KMSO,US-MT,Missoula,Missoula International Airport,0,46.91630173,-114.0910034,3206,M,9501,2,14,2375
PBG,KPBG,US-NY,Plattsburgh,Plattsburgh International Airport,0,44.65090179,-73.4681015,234,M,11758,1,12,2145
RJK,LDRI,HR-08,Rijeka,Rijeka Airport,0,45.21689987,14.5703001,278,M,8164,1,9,1666
PIS,LFBI,FR-T,Poitiers/Biard,Poitiers-Biard Airport,0,46.58769989,0.306665987,423,M,7710,1,9,1750
KLU,LOWK,AT-2,Klagenfurt am W├╢rthersee,Klagenfurt Airport,0,46.642502,14.3377,1472,M,8924,2,13,2104
ASR,LTAU,TR-38,Kayseri,Kayseri Erkilet Airport,0,38.770401,35.49539948,3463,M,9841,1,11,2187
DIY,LTCC,TR-21,Diyarbakir,Diyarbakir Airport,0,37.89390183,40.20100021,2251,M,11644,1,13,2041
PBC,MMPB,MX-PUE,Puebla,Hermanos Serd├ín International Airport,0,19.15810013,-98.37139893,7361,M,11811,1,12,2375
QRO,MMQT,MX-QUE,Quer├⌐taro,Quer├⌐taro Intercontinental Airport,0,20.6173,-100.185997,6296,M,11483,1,12,1750
TAM,MMTM,MX-TAM,Tampico,General Francisco Javier Mina International Airport,0,22.29640007,-97.86589813,80,M,8366,3,14,2354
ZCL,MMZC,MX-ZAC,Zacatecas,General Leobardo C. Ruiz International Airport,0,22.89710045,-102.6869965,7141,M,9843,2,13,2166
ZLO,MMZO,MX-COL,Manzanillo,Playa De Oro International Airport,0,19.14480019,-104.5589981,30,M,7218,1,8,1812
BOB,NTTB,PF-U-A,Motu Mute,Bora Bora Airport,0,-16.44440079,-151.7510071,10,M,4921,2,9,2041
ZQN,NZQN,NZ-OTA,Queenstown,Queenstown International Airport,0,-45.02109909,168.7389984,1171,M,6204,4,16,2187
AZD,OIYY,IR-25,Yazd,Shahid Sadooghi Airport,0,31.9048996,54.2765007,4054,M,13446,1,14,1770
SLL,OOSA,OM-ZU,Salalah,Salalah Airport,0,17.0387001,54.09130096,73,M,10965,2,14,1958
TAI,OYTZ,YE-TA,Ta'izz,Ta'izz International Airport,0,13.68599987,44.13909912,4838,M,10040,1,11,1875
BRW,PABR,US-AK,Utqia─ívik,Wiley Post Will Rogers Memorial Airport,0,71.285402,-156.766008,44,M,6500,1,8,1979
AKN,PAKN,US-AK,King Salmon,King Salmon Airport,0,58.67679977,-156.6490021,73,M,8901,3,17,2104
AKJ,RJEC,JP-01,Asahikawa / Hokkaid┼ì,Asahikawa Airport,0,43.67079926,142.4470062,721,M,8200,1,9,1958
ROS,SAAR,AR-S,Rosario,Islas Malvinas Airport,0,-32.9036,-60.785,85,M,9842,1,10,1916
BRC,SAZS,AR-R,San Carlos de Bariloche,San Carlos De Bariloche Airport,0,-41.15119934,-71.15750122,2774,M,7703,1,9,1750
IMP,SBIZ,BR-MA,Imperatriz,Prefeito Renato Moreira Airport,0,-5.531290054,-47.45999908,432,M,5899,1,7,2229
NVT,SBNF,BR-SC,Navegantes,Ministro Victor Konder International Airport,0,-26.87999916,-48.65140152,18,M,5581,1,7,2041
PMW,SBPJ,BR-TO,Palmas,Brigadeiro Lysias Rodrigues Airport,0,-10.29150009,-48.35699844,774,M,8202,1,10,1666
PUQ,SCCI,CL-MA,Punta Arenas,Pdte. Carlos Iba├▒ez del Campo Airport,0,-53.002602,-70.854599,139,M,9154,3,16,1875
LSC,SCSE,CL-CO,La Serena-Coquimbo,La Florida Airport,0,-29.916201,-71.199501,481,M,6358,1,8,1958
CRW,KCRW,US-WV,Charleston,Yeager Airport,1,38.37310028,-81.59320068,981,L,6302,2,12,3875
LFT,KLFT,US-LA,Lafayette,Lafayette Regional Airport,1,30.20529938,-91.98760223,42,L,7651,3,15,3375
MLU,KMLU,US-LA,Monroe,Monroe Regional Airport,1,32.51089859,-92.03769684,79,L,7507,3,15,4083
GUR,AYGN,PG-MBA,Gurney,Gurney Airport,0,-10.3114996,150.3339996,88,M,5546,1,7,1812
HKN,AYHK,PG-WBK,Hoskins,Kimbe Airport,0,-5.462170124,150.4049988,66,M,5212,1,7,1875
WWK,AYWK,PG-ESW,Wewak,Wewak International Airport,0,-3.583830118,143.6690063,19,M,5234,1,7,1916
YBC,CYBC,CA-QC,Baie-Comeau,Baie Comeau Airport,0,49.13249969,-68.20439911,71,M,6000,1,8,1770
YBK,CYBK,CA-NU,Baker Lake,Baker Lake Airport,0,64.29889679,-96.07779694,59,M,4200,1,6,2291
YBL,CYBL,CA-BC,Campbell River,Campbell River Airport,0,49.95080185,-125.2710037,346,M,5000,1,8,1854
YCB,CYCB,CA-NU,Cambridge Bay,Cambridge Bay Airport,0,69.10810089,-105.1380005,90,M,5000,1,7,1979
YCS,CYCS,CA-NU,Chesterfield Inlet,Chesterfield Inlet Airport,0,63.34690094,-90.73110199,32,M,3600,1,5,1833
YKQ,CYKQ,CA-QC,Waskaganish,Waskaganish Airport,0,51.47330093,-78.75830078,80,M,3500,1,5,2229
YNA,CYNA,CA-QC,Natashquan,Natashquan Airport,0,50.18999863,-61.78919983,39,M,4494,1,6,1687
YSB,CYSB,CA-ON,Sudbury,Sudbury Airport,0,46.625,-80.79889679,1141,M,6600,2,11,1895
YTH,CYTH,CA-MB,Thompson,Thompson Airport,0,55.80110168,-97.86419678,729,M,5800,2,11,2270
YVQ,CYVQ,CA-NT,Norman Wells,Norman Wells Airport,0,65.28160095,-126.7979965,238,M,5997,1,8,1916
YXJ,CYXJ,CA-BC,Fort St.John,Fort St John Airport,0,56.23809814,-120.7399979,2280,M,6900,2,12,2041
YXU,CYXU,CA-ON,London,London Airport,0,43.035599,-81.1539,912,M,8800,2,13,1854
YZS,CYZS,CA-NU,Coral Harbour,Coral Harbour Airport,0,64.19329834,-83.35939789,210,M,5000,1,7,2208
BJA,DAAE,DZ-06,B├⌐ja├»a,Soummam Airport,0,36.7120018,5.069920063,20,M,7874,1,9,2000
TLM,DAON,DZ-13,Tlemcen,Zenata ΓÇô Messali El Hadj Airport,0,35.01670074,-1.450000048,814,M,8530,1,9,2041
AZR,DAUA,DZ-01,,Touat Cheikh Sidi Mohamed Belkebir Airport,0,27.83760071,-0.186414003,919,M,9843,1,11,1854
HME,DAUH,DZ-30,Hassi Messaoud,Oued Irara Airport,0,31.67300034,6.140439987,463,M,9843,2,13,2020
ERF,EDDE,DE-TH,Erfurt,Erfurt Airport,0,50.97980118,10.95810032,1036,M,8530,1,11,1687
NQY,EGHQ,GB-ENG,Newquay,Newquay Cornwall Airport,0,50.44060135,-4.995409966,390,M,9006,1,11,2187
GRQ,EHGG,NL-DR,Groningen,Eelde Airport,0,53.11970139,6.579440117,17,M,8202,2,12,1770
KIR,EIKY,IE-KY,Killarney,Kerry Airport,0,52.18090057,-9.523779869,112,M,6562,2,10,2208
HAD,ESMT,SE-N,Halmstad,Halmstad Airport,0,56.69110107,12.82019997,101,M,7419,1,8,2020
GEV,ESNG,SE-BD,G├ñllivare,G├ñllivare Airport,0,67.13240051,20.81459999,1027,M,5623,1,7,2208
VPE,FNGI,AO-CNN,Ngiva,Ngjiva Pereira Airport,0,-17.0435009,15.68379974,3566,M,10640,1,11,1895
ATZ,HEAT,EG-WAD,Assiut,Assiut International Airport,0,27.04649925,31.01199913,772,M,9905,1,11,1875
RMF,HEMA,EG-BA,Marsa Alam,Marsa Alam International Airport,0,25.5571003,34.58369827,251,M,9843,1,11,2291
MWZ,HTMW,TZ-18,Mwanza,Mwanza Airport,0,-2.444489956,32.93270111,3763,M,10212,1,11,1979
ACK,KACK,US-MA,Nantucket,Nantucket Memorial Airport,0,41.25310135,-70.06020355,47,M,6303,3,14,1729
AEX,KAEX,US-LA,Alexandria,Alexandria International Airport,0,31.32740021,-92.54979706,89,M,9352,2,14,2291
ALS,KALS,US-CO,Alamosa,San Luis Valley Regional Bergman Field,0,37.434898,-105.866997,7539,M,8519,2,13,2020
AZO,KAZO,US-MI,Kalamazoo,Kalamazoo Battle Creek International Airport,0,42.23490143,-85.55210114,874,M,6500,3,14,2145
BIS,KBIS,US-ND,Bismarck,Bismarck Municipal Airport,0,46.77270126,-100.7460022,1661,M,8794,2,14,2291
CYS,KCYS,US-WY,Cheyenne,Cheyenne Regional Jerry Olson Field,0,41.15570068,-104.8119965,6159,M,9267,2,14,2229
DDC,KDDC,US-KS,Dodge City,Dodge City Regional Airport,0,37.76340103,-99.96559906,2594,M,6899,2,11,1750
ELM,KELM,US-NY,Elmira/Corning,Elmira Corning Regional Airport,0,42.15990067,-76.89160156,954,M,7000,3,15,2020
GRK,KGRK,US-TX,Fort Hood/Killeen,Robert Gray  Army Air Field Airport,0,31.06719971,-97.8289032,1015,M,10000,1,13,2145
ILG,KILG,US-DE,Wilmington,New Castle Airport,0,39.67869949,-75.60649872,80,M,7181,3,15,1916
LBL,KLBL,US-KS,Liberal,Liberal Mid-America Regional Airport,0,37.0442009,-100.9599991,2885,M,7105,2,11,2104
MFE,KMFE,US-TX,Mc Allen,Mc Allen Miller International Airport,0,26.17580032,-98.23860168,107,M,7120,2,12,2104
STS,KSTS,US-CA,Santa Rosa,Charles M. Schulz Sonoma County Airport,0,38.50899887,-122.8130035,128,M,6000,2,11,2083
SWF,KSWF,US-NY,Newburgh,Stewart International Airport,0,41.5041008,-74.10479736,491,M,11818,2,16,1750
JKH,LGHI,GR-85,Chios Island,Chios Island National Airport,0,38.34320068,26.1406002,15,M,4957,1,7,2083
EFL,LGKF,GR-23,Kefallinia Island,Kefallinia Airport,0,38.12009811,20.50049973,59,M,7992,1,9,2000
AOK,LGKP,GR-81,Karpathos Island,Karpathos Airport,0,35.42139816,27.14599991,66,M,7871,1,9,2354
KVA,LGKV,GR-55,Kavala,Alexander the Great International Airport,0,40.91329956,24.61919975,18,M,9844,1,11,2083
REG,LICR,IT-78,Reggio Calabria,Reggio Calabria Airport,0,38.071201,15.6516,96,M,6549,2,10,1791
HOR,LPHR,PT-20,Horta,Horta Airport,0,38.51990128,-28.71590042,118,M,5233,1,7,1687
EZS,LTCA,TR-23,Elaz─▒─ƒ,Elaz─▒─ƒ Airport,0,38.60689926,39.29140091,2927,M,5643,1,7,2229
LUZ,LUZ,PL-LU,Lublin,Lublin Airport,0,51.240278,22.713611,633,M,8268,0,7,2020
GIB,LXGB,GI-U-A,Gibraltar,Gibraltar Airport,0,36.15119934,-5.34965992,15,M,6000,1,8,2083
KSC,LZKZ,SK-KI,Ko┼íice,Ko┼íice Airport,0,48.6631012,21.24110031,755,M,10171,1,11,2270
AZS,MDCY,DO-20,Samana,Saman├í El Catey International Airport,0,19.2670002,-69.74199677,30,M,9843,1,10,2125
OAX,MMOX,MX-OAX,Oaxaca,Xoxocotl├ín International Airport,0,16.99990082,-96.72660065,4989,M,8038,1,9,2062
PAZ,MMPA,MX-VER,Poza Rica,El Taj├¡n National Airport,0,20.60269928,-97.46080017,497,M,5906,1,7,1979
CCC,MUCC,CU-08,Cayo Coco,Jardines Del Rey Airport,0,22.46100044,-78.32839966,13,M,9842,1,11,1791
HEA,OAHR,AF-HER,,Herat Airport,0,34.20999908,62.22829819,3206,M,8218,1,9,2250
GIZ,OEGN,SA-09,Jizan,Jizan Regional Airport,0,16.90110016,42.58580017,20,M,10006,1,11,2208
ABD,OIAA,IR-10,Abadan,Abadan Airport,0,30.37109947,48.22829819,10,M,10169,2,13,2229
KSH,OICC,IR-17,Kermanshah,Shahid Ashrafi Esfahani Airport,0,34.34590149,47.15810013,4307,M,11213,1,12,1979
SRY,OINZ,IR-21,Sari,Dasht-e Naz Airport,0,36.63579941,53.1935997,35,M,8688,1,10,1750
LRR,OISL,IR-14,Lar,Lar Airport,0,27.67469978,54.38330078,2641,M,10334,1,11,2187
ZBR,OIZC,IR-13,Chabahar,Konarak Airport,0,25.44330025,60.38209915,43,M,12514,2,16,2375
SKZ,OPSK,PK-SD,Mirpur Khas,Sukkur Airport,0,27.72200012,68.79170227,196,M,9000,1,10,2395
TUK,OPTU,PK-BA,Turbat,Turbat International Airport,0,25.9864006,63.03020096,498,M,6000,1,8,2166
MCG,PAMC,US-AK,McGrath,McGrath Airport,0,62.95289993,-155.6060028,341,M,5936,2,9,2125
MMB,RJCM,JP-01,┼îzora,Memanbetsu Airport,0,43.88059998,144.1640015,135,M,8202,1,9,2166
NKM,RJNA,JP-23,Nagoya,Nagoya Airport,0,35.25500107,136.923996,52,M,8990,1,11,1895
TAE,RKTN,KR-27,Daegu,Daegu Airport,0,35.896872,128.65531,116,M,9039,2,14,2000
ZAM,RPMZ,PH-ZAS,Zamboanga City,Zamboanga International Airport,0,6.922420025,122.0599976,33,M,8560,1,10,2000
BCD,RPVB,PH-NEC,Bacolod City,Bacolod-Silay Airport,0,10.7764,123.014999,82,M,6562,1,8,2166
SLA,SASA,AR-A,Salta,Martin Miguel De Guemes International Airport,0,-24.8560009,-65.48619843,4088,M,9842,2,13,1979
CRD,SAVC,AR-U,Comodoro Rivadavia,General E. Mosconi Airport,0,-45.7853,-67.4655,189,M,9219,1,10,2354
REL,SAVT,AR-U,Rawson,Almirante Marco Andres Zar Airport,0,-43.2105,-65.2703,141,M,8399,1,9,1666
RGL,SAWG,AR-Z,Rio Gallegos,Piloto Civil N. Fern├índez Airport,0,-51.6089,-69.3126,61,M,11644,1,13,2354
NQN,SAZN,AR-Q,Neuquen,Presidente Peron Airport,0,-38.94900131,-68.15570068,895,M,8432,1,9,1687
VDC,SBQV,BR-BA,Vit├│ria Da Conquista,Vit├│ria da Conquista Airport,0,-14.86279964,-40.86309814,3002,M,5823,1,7,2000
CJC,SCCF,CL-AN,Calama,El Loa Airport,0,-22.49819946,-68.9036026,7543,M,9478,1,10,1875
CCP,SCIE,CL-BI,Concepcion,Carriel Sur Airport,0,-36.772701,-73.063103,26,M,7540,2,12,2312
LET,SKLT,CO-AMA,Leticia,Alfredo V├ísquez Cobo International Airport,0,-4.19355,-69.9432,277,M,6168,1,8,1687
PEI,SKPE,CO-RIS,Pereira,Mateca├▒a International Airport,0,4.81267,-75.7395,4416,M,6627,1,8,2166
UIB,SKUI,CO-CHO,Quibd├│,El Cara├▒o Airport,0,5.69076,-76.6412,204,M,4593,1,6,1937
CRP,KCRP,US-TX,Corpus Christi,Corpus Christi International Airport,1,27.77039909,-97.50119781,44,L,7508,2,13,3625
DAB,KDAB,US-FL,Daytona Beach,Daytona Beach International Airport,1,29.179899,-81.058098,34,L,10500,3,18,4375
FSM,KFSM,US-AR,Fort Smith,Fort Smith Regional Airport,1,35.33660126,-94.36740112,469,L,8000,2,14,3833
HTS,KHTS,US-WV,Huntington,Tri-State/Milton J. Ferguson Field,1,38.36669922,-82.55799866,828,L,6509,2,12,3333
MBS,KMBS,US-MI,Saginaw,MBS International Airport,1,43.53290176,-84.07959747,668,L,8002,2,13,4083
RFD,KRFD,US-IL,Chicago/Rockford,Chicago Rockford International Airport,1,42.19540024,-89.09719849,742,L,10004,2,15,4083
TOL,KTOL,US-OH,Toledo,Toledo Express Airport,1,41.58679962,-83.80780029,683,L,10600,2,15,3708
ERZ,LTCE,TR-25,Erzurum,Erzurum International Airport,1,39.95650101,41.17020035,5763,L,12500,3,18,3500
GKA,AYGA,PG-EHG,Goronka,Goroka Airport,0,-6.081689835,145.3919983,5282,M,5400,2,9,1687
PNP,AYGR,PG-NPP,Popondetta,Girua Airport,0,-8.80453968,148.3090057,311,M,5485,1,7,1916
MAS,AYMO,PG-MRL,Manus Island,Momote Airport,0,-2.06189,147.423996,12,M,6136,1,8,1729
UAK,BGBW,GL-U-A,Narsarsuaq,Narsarsuaq Airport,0,61.16049957,-45.42599869,112,M,6004,1,7,1833
RKV,BIRK,IS-1,Reykjavik,Reykjavik Airport,0,64.12999725,-21.94059944,48,M,5141,3,13,2125
YCO,CYCO,CA-NU,Kugluktuk,Kugluktuk Airport,0,67.816704,-115.143997,74,M,5500,1,7,2395
YGT,CYGT,CA-NU,Igloolik,Igloolik Airport,0,69.36470032,-81.81610107,174,M,3800,1,5,1687
YKA,CYKA,CA-BC,Kamloops,Kamloops Airport,0,50.70220184,-120.4440002,1133,M,8000,2,13,2208
YKL,CYKL,CA-QC,Schefferville,Schefferville Airport,0,54.80530167,-66.80529785,1709,M,5000,1,7,1875
YPM,CYPM,CA-ON,Pikangikum,Pikangikum Airport,0,51.81969833,-93.97329712,1114,M,3500,1,5,1958
YQD,CYQD,CA-MB,The Pas,The Pas Airport,0,53.97140121,-101.0910034,887,M,5901,1,8,1708
YTS,CYTS,CA-ON,Timmins,Timmins/Victor M. Power,0,48.56969833,-81.37670136,967,M,6000,2,11,1666
YUY,CYUY,CA-QC,Rouyn-Noranda,Rouyn Noranda Airport,0,48.20610046,-78.83560181,988,M,7485,1,9,2083
YWL,CYWL,CA-BC,Williams Lake,Williams Lake Airport,0,52.18310165,-122.0540009,3085,M,7000,1,9,2395
YXN,CYXN,CA-NU,Whale Cove,Whale Cove Airport,0,62.24000168,-92.59809875,40,M,4000,1,5,1729
YXT,CYXT,CA-BC,Terrace,Northwest Regional Airport Terrace-Kitimat,0,54.468498,-128.576009,713,M,7497,2,12,2145
YXY,CYXY,CA-YT,Whitehorse,Whitehorse / Erik Nielsen International Airport,0,60.70959854,-135.0670013,2317,M,9497,3,17,2395
OGX,DAUU,DZ-30,Ouargla,Ain el Beida Airport,0,31.91720009,5.412779808,492,M,10171,2,13,2395
RLG,ETNL,DE-MV,Rostock,Rostock-Laage Airport,0,53.91820145,12.27830029,138,M,8202,1,10,1812
HDF,EDAH,DE-MV,Heringsdorf,Heringsdorf Airport,0,53.87870026,14.15229988,93,M,7562,2,12,1666
VAA,EFVA,FI-LS,Vaasa,Vaasa Airport,0,63.05070114,21.7621994,19,M,8727,1,10,1833
LDY,EGAE,GB-NIR,Derry,City of Derry Airport,0,55.0428009,-7.161109924,22,M,6076,2,10,2041
HUY,EGNJ,GB-ENG,Grimsby,Humberside Airport,0,53.57440186,-0.350832999,121,M,7205,2,12,1958
LSI,EGPB,GB-SCT,Lerwick,Sumburgh Airport,0,59.87889862,-1.295560002,20,M,4678,3,12,1750
SYY,EGPO,GB-SCT,Stornoway,Stornoway Airport,0,58.21559906,-6.331110001,26,M,7218,2,12,2250
BNN,ENBN,NO-18,Br├╕nn├╕y,Br├╕nn├╕ysund Airport,0,65.46109772,12.21749973,25,M,3937,1,6,2041
BJF,ENBS,NO-20,B├Ñtsfjord,B├Ñtsfjord Airport,0,70.60050201,29.69140053,490,M,3281,1,5,2250
FRO,ENFL,NO-14,Flor├╕,Flor├╕ Airport,0,61.58359909,5.024720192,37,M,3934,1,6,1770
MEH,ENMH,NO-20,Mehamn,Mehamn Airport,0,71.02970123,27.82670021,39,M,2887,1,5,2125
MJF,ENMS,NO-18,,Mosj├╕en Airport (Kj├ªrstad),0,65.78399658,13.21490002,237,M,3015,1,5,1729
SDL,ESNN,SE-Y,Sundsvall/ H├ñrn├╢sand,Sundsvall-H├ñrn├╢sand Airport,0,62.52809906,17.44389915,16,M,6857,1,8,2041
ELS,FAEL,ZA-EC,East London,Ben Schoeman Airport,0,-33.03559875,27.82589912,435,M,6362,2,11,2354
DIE,FMNA,MG-D,,Arrachart Airport,0,-12.34939957,49.29169846,374,M,4921,1,7,2395
BVE,FR-0321,FR-L,,Brive Souillac Airport,0,45.039722,1.485556,1016,M,6890,1,8,2270
BLZ,FWCL,MW-BL,Blantyre,Chileka International Airport,0,-15.67910004,34.97399902,2555,M,7628,2,11,1812
MLN,GEML,ES-ML,Melilla,Melilla Airport,0,35.27980042,-2.956259966,156,M,4685,1,6,2375
MYD,HKML,KE-300,Malindi,Malindi Airport,0,-3.229310036,40.10169983,80,M,4600,2,8,2104
WJR,HKWJ,KE-500,Wajir,Wajir Airport,0,1.733240008,40.09159851,770,M,9193,1,10,1729
PZU,HSPN,SD-26,Port Sudan,Port Sudan New International Airport,0,19.43359947,37.23410034,135,M,8202,1,9,2354
EWN,KEWN,US-NC,New Bern,Coastal Carolina Regional Airport,0,35.07300186,-77.04290009,18,M,6004,2,11,2375
FCA,KGPI,US-MT,Kalispell,Glacier Park International Airport,0,48.3105011,-114.2559967,2977,M,9007,3,16,1958
HLN,KHLN,US-MT,Helena,Helena Regional Airport,0,46.60680008,-111.9830017,3877,M,9000,3,17,2125
MLB,KMLB,US-FL,Melbourne,Melbourne International Airport,0,28.10280037,-80.64530182,33,M,10181,3,18,2291
MOT,KMOT,US-ND,Minot,Minot International Airport,0,48.25939941,-101.2799988,1716,M,7700,2,13,2125
TVC,KTVC,US-MI,Traverse City,Cherry Capital Airport,0,44.74140167,-85.5821991,624,M,6501,3,14,1791
SCE,KUNV,US-PA,State College,University Park Airport,0,40.84930038,-77.84870148,1239,M,6701,1,9,2208
PUF,LFBP,FR-B,Pau/Pyr├⌐n├⌐es (Uzein),Pau Pyr├⌐n├⌐es Airport,0,43.38000107,-0.41861099,616,M,8202,1,10,2020
LDE,LFBT,FR-N,Tarbes/Lourdes/Pyr├⌐n├⌐es,Tarbes-Lourdes-Pyr├⌐n├⌐es Airport,0,43.17869949,-0.006439,1260,M,9843,1,11,1979
ETZ,LFJL,FR-M,Metz / Nancy,Metz-Nancy-Lorraine Airport,0,48.98210144,6.251319885,870,M,8202,1,10,1750
EBU,LFMH,FR-V,Saint-├ëtienne/Bouth├⌐on,Saint-├ëtienne-Bouth├⌐on Airport,0,45.54059982,4.296390057,1325,M,7546,1,9,1854
PGF,LFMP,FR-K,Perpignan/Rivesaltes,Perpignan-Rivesaltes (Llaban├¿re) Airport,0,42.74039841,2.87067008,144,M,8202,2,12,2229
TUF,LFOT,FR-F,Tours/Val de Loire (Loire Valley),Tours-Val-de-Loire Airport,0,47.43220139,0.727605999,357,M,7887,1,10,2187
JSH,LGST,GR-92,Crete Island,Sitia Airport,0,35.21609879,26.10129929,376,M,6804,1,8,1833
CUF,LIMZ,IT-21,Cuneo,Cuneo International Airport,0,44.547001,7.62322,1267,M,6903,1,8,1750
EBA,LIRJ,IT-52,Marina  Di Campo,Marina Di Campo Airport,0,42.7603,10.2394,31,M,3114,1,5,1791
PEG,LIRZ,IT-55,Perugia,Perugia San Francesco d'Assisi ΓÇô Umbria International Airport,0,43.095901,12.5132,697,M,5564,1,7,1854
KLV,LKKV,CZ-KA,Karlovy Vary,Karlovy Vary International Airport,0,50.20299911,12.91499996,1989,M,7054,1,9,2000
ETH,LLET,IL-D,Eilat,Eilat Airport,0,29.56130028,34.96009827,42,M,6234,1,8,1895
SBZ,LRSB,RO-SB,Sibiu,Sibiu International Airport,0,45.78559875,24.09129906,1496,M,6562,1,8,2041
TGM,LRTM,RO-MS,T├órgu Mure┼ƒ,Transilvania T├órgu Mure┼ƒ International Airport,0,46.46770096,24.41250038,963,M,6562,1,8,1729
VAN,LTCI,TR-65,Van,Van Ferit Melen Airport,0,38.46820068,43.33229828,5480,M,9022,1,10,2250
MQM,LTCR,TR-47,Mardin,Mardin Airport,0,37.22330093,40.63169861,1729,M,8204,1,9,1666
CEN,MMCN,MX-SON,Ciudad Obreg├│n,Ciudad Obreg├│n International Airport,0,27.39259911,-109.8330002,243,M,7546,1,9,2083
DGO,MMDO,MX-DUR,Durango,General Guadalupe Victoria International Airport,0,24.12420082,-104.5279999,6104,M,9514,1,10,2395
LMM,MMLM,MX-SIN,Los Mochis,Valle del Fuerte International Airport,0,25.68519974,-109.0810013,16,M,6562,1,8,2104
SCU,MUCU,CU-13,Santiago,Antonio Maceo International Airport,0,19.96980095,-75.83540344,249,M,13130,2,16,1666
TBU,NFTF,TO-04,Nuku'alofa,Fua'amotu International Airport,0,-21.24119949,-175.1499939,126,M,8795,2,13,2375
APW,NSFA,WS-AA,Apia,Faleolo International Airport,0,-13.82999992,-172.0079956,58,M,9843,1,12,2104
RGI,NTTG,PF-U-A,,Rangiroa Airport,0,-14.95429993,-147.6609955,10,M,6890,1,9,2333
TAH,NVVW,VU-TAE,,Tanna Airport,0,-19.45509911,169.223999,19,M,4035,1,6,1666
PMR,NZPM,NZ-MWT,,Palmerston North Airport,0,-40.3205986,175.6170044,151,M,6240,3,13,2000
HAS,OEHL,SA-06,Ha'il,Ha'il Airport,0,27.437901,41.686298,3331,M,12204,1,13,1833
BUZ,OIBB,IR-06,Bushehr,Bushehr Airport,0,28.94479942,50.83459854,68,M,14664,2,18,1979
PGU,OIBP,IR-06,Asalouyeh,Persian Gulf International Airport,0,27.379601,52.737701,27,M,13115,1,13,2354
BHV,OPBW,PK-PB,Bahawalpur,Bahawalpur Airport,0,29.34810066,71.71800232,392,M,9345,1,10,2354
HOD,OYHD,YE-HU,Hodeida,Hodeidah International Airport,0,14.75300026,42.97629929,41,M,9843,1,11,1770
GXF,OYSY,YE-HD,Sayun,Sayun International Airport,0,15.96609974,48.78829956,2097,M,9843,1,10,2187
SCC,PASC,US-AK,Deadhorse,Deadhorse Airport,0,70.19470215,-148.4649963,65,M,6500,1,9,2062
MZG,RCQC,TW-PEN,Makung City,Makung Airport,0,23.56870079,119.6279984,103,M,9843,1,11,1687
IBR,RJAH,JP-08,Omitama,Hyakuri Airport,0,36.18109894,140.4149933,105,M,8860,1,11,1895
KUH,RJCK,JP-01,Kushiro,Kushiro Airport,0,43.04100037,144.1929932,327,M,8202,1,9,2354
AOJ,RJSA,JP-02,Aomori,Aomori Airport,0,40.73469925,140.6909943,664,M,9846,1,11,2312
